{"stops":[{"lat":"45.07544","lines":"1,Night Buster 1 arancio,36","lng":"7.63914","location":"C.FRANCIA / V.BORGOSESIA","name":"RUBIANA","placeName":"Torino","id":"10","type":"BUS"},{"lat":"45.09583","lines":"2,1085","lng":"7.65727","location":"C.POTENZA N.102/A","name":"TOSCANA","placeName":"Torino","id":"100","type":"BUS"},{"lat":"45.03823","lines":"58,40,98,11","lng":"7.61928","location":"V.RUBINO N.79","name":"CIMABUE","placeName":"Torino","id":"1000","type":"BUS"},{"lat":"45.07709","lines":"3107,3092,3165,3131,3166,3133,1091,3990,3991,5135,1068,3006","lng":"7.68999","location":"_","name":"Torino (v. Fiochetto)","placeName":"_","id":"10001","type":"BUS"},{"lat":"45.03664","lines":"12,98,40","lng":"7.61916","location":"C.TAZZOLI N.221","name":"INDUNO","placeName":"Torino","id":"1001","type":"BUS"},{"lat":"45.03701","lines":"40,98,12","lng":"7.61982","location":"C.TAZZOLI N.202","name":"INDUNO","placeName":"Torino","id":"1002","type":"BUS"},{"lat":"45.03565","lines":"12,98,40","lng":"7.6233","location":"C.TAZZOLI/P.CATTANEO","name":"CATTANEO OVEST","placeName":"Torino","id":"1003","type":"BUS"},{"lat":"45.03622","lines":"40,98,12","lng":"7.62334","location":"C.TAZZOLI N.162","name":"CATTANEO OVEST","placeName":"Torino","id":"1004","type":"BUS"},{"lat":"45.03512","lines":"2014,62,1514,1515,3106,3329,3321,91,94,97,92,99,90,98,40","lng":"7.62594","location":"C.TAZZOLI DOPO P.CATTANEO","name":"CATTANEO EST","placeName":"Torino","id":"1005","type":"BUS"},{"lat":"45.03537","lines":"40,3106,1800,2014,62,98,97,92,95,96,94,93 /,90,91,99,3329,3321","lng":"7.62602","location":"C.TAZZOLI/P.CATTANEO","name":"CATTANEO EST","placeName":"Torino","id":"1006","type":"BUS"},{"lat":"45.03372","lines":"3321,3329,2014,1515,1514,40,3106,91,96,92,90,97,98,95,99,94,93 /,62","lng":"7.62998","location":"C.TAZZOLI FRONTE V.POMA","name":"POMA","placeName":"Torino","id":"1007","type":"BUS"},{"lat":"44.99549","lines":"1117,1085,2075","lng":"7.51368","location":"_","name":"Rivalta (Fiat-canc. 3)","placeName":"_","id":"10075","type":"BUS"},{"lat":"45.034","lines":"95,91,96,90,99,93 /,97,94,92,98,62,3329,3321,40,2014,3106","lng":"7.63013","location":"C.TAZZOLI / V.POMA","name":"POMA","placeName":"Torino","id":"1008","type":"BUS"},{"lat":"45.39686","lines":"4156,4108","lng":"7.88418","location":"_","name":"Cerone (bv. Cerone)","placeName":"_","id":"10081","type":"BUS"},{"lat":"45.38249","lines":"4108,3994,4156,5318","lng":"7.88511","location":"_","name":"Strambino","placeName":"_","id":"10083","type":"BUS"},{"lat":"45.03266","lines":"62,92,94,95,90,93 /,91,96,97,98,99,40","lng":"7.63317","location":"C.TAZZOLI CANCELLO 1","name":"SIRACUSA","placeName":"Torino","id":"1009","type":"BUS"},{"lat":"45.35773","lines":"4108","lng":"7.90666","location":"_","name":"Carrone (P.za Filippo Crosio)","placeName":"_","id":"10092","type":"BUS"},{"lat":"45.37977","lines":"4108","lng":"7.89693","location":"_","name":"Crotte (v. S.Carlo/bv. Strambino)","placeName":"_","id":"10095","type":"BUS"},{"lat":"45.33477","lines":"4108","lng":"7.94635","location":"_","name":"Vische (v. Amione/bv. Caluso)","placeName":"_","id":"10098","type":"BUS"},{"lat":"45.09477","lines":"2","lng":"7.65646","location":"C.POTENZA / V.VALDELLATORRE","name":"VALDELLATORRE","placeName":"Torino","id":"101","type":"BUS"},{"lat":"45.03265","lines":"62,40,98,91,97,95,90,93 /,99,94,92,96","lng":"7.63412","location":"C.TAZZOLI / C.SIRACUSA","name":"SIRACUSA","placeName":"Torino","id":"1010","type":"BUS"},{"lat":"45.1202","lines":"3166,3131,3092,5135","lng":"7.71104","location":"parcheggio Stura FS","name":"Torino (Parcheggio e stazione Stura)","placeName":"Torino","id":"10100","type":"BUS"},{"lat":"45.02662","lines":"10,97,96,95 /,98,90,94,99,1800,40,41","lng":"7.63701","location":"C.AGNELLI / C.TRAIANO","name":"TRAIANO","placeName":"Torino","id":"1011","type":"BUS"},{"lat":"44.99511","lines":"1085,1117,1510,1514,2075","lng":"7.50002","location":"_","name":"Rivalta (FIAT Rivalta-canc. 11)","placeName":"_","id":"10119","type":"BUS"},{"lat":"45.02408","lines":"2014,41,40,3329,3321,10,1515,1514,95 /,94,98,99,97,90,96,3106","lng":"7.6352","location":"C.AGNELLI / P.LE CAIO MARIO","name":"CAIO MARIO NORD","placeName":"Torino","id":"1012","type":"BUS"},{"lat":"44.99563","lines":"2075,1085,1117,1510,1514","lng":"7.5018","location":"_","name":"Rivalta (FIAT Rivalta-canc. 9)","placeName":"_","id":"10128","type":"BUS"},{"lat":"45.02449","lines":"3106,3329,3321,40,41,94,98,90,96,97,99,10","lng":"7.63599","location":"C.AGNELLI / P.LE CAIO MARIO","name":"CAIO MARIO NORD","placeName":"Torino","id":"1013","type":"BUS"},{"lat":"44.99799","lines":"1085,2075","lng":"7.50987","location":"_","name":"Rivalta (Avio canc. 10)","placeName":"_","id":"10131","type":"BUS"},{"lat":"44.99663","lines":"1085","lng":"7.49669","location":"_","name":"Rivalta (Avio canc. 20)","placeName":"_","id":"10132","type":"BUS"},{"lat":"45.02212","lines":"99,40,40N","lng":"7.63657","location":"V.O.VIGLIANI N.6","name":"CAIO MARIO EST","placeName":"Torino","id":"1014","type":"BUS"},{"lat":"45.02253","lines":"40,40N,99,1085","lng":"7.63646","location":"V.O.VIGLIANI N.9","name":"CAIO MARIO EST","placeName":"Torino","id":"1015","type":"BUS"},{"lat":"45.10252","lines":"1085","lng":"7.66128","location":"_","name":"Torino (C.so Potenza 175)","placeName":"_","id":"10151","type":"BUS"},{"lat":"45.01818","lines":"99,40,40N","lng":"7.64383","location":"V.O.VIGLIANI FRONTE C.B.CROCE","name":"CROCE","placeName":"Torino","id":"1016","type":"BUS"},{"lat":"45.0186","lines":"40,40N,99","lng":"7.64406","location":"V.O.VIGLIANI / C.B.CROCE","name":"CROCE","placeName":"Torino","id":"1017","type":"BUS"},{"lat":"45.01741","lines":"99,40,40N","lng":"7.64733","location":"V.O.VIGLIANI / V.ARTOM","name":"ARTOM","placeName":"Torino","id":"1018","type":"BUS"},{"lat":"45.01783","lines":"40N,40,99,1085","lng":"7.64751","location":"V.O.VIGLIANI DOPO V.PIO VII","name":"ARTOM","placeName":"Torino","id":"1019","type":"BUS"},{"lat":"45.10589","lines":"72","lng":"7.64538","location":"STR.ALTESSANO / C.GROSSETO","name":"GROSSETO","placeName":"Torino","id":"102","type":"BUS"},{"lat":"45.01714","lines":"1,99,81,40N,40","lng":"7.65081","location":"V.O.VIGLIANI / V.MILLELIRE","name":"MILLELIRE","placeName":"Torino","id":"1020","type":"BUS"},{"lat":"45.01768","lines":"40,40N,81,99,1","lng":"7.65397","location":"V. O. VIGLIANI PRIMA DI V. VII COMUNI","name":"SETTE COMUNI","placeName":"Torino","id":"1021","type":"BUS"},{"lat":"45.01724","lines":"1,99,81,40,40N","lng":"7.65576","location":"V. ONORATO VIGLIANI N. 184","name":"PLINIO","placeName":"Torino","id":"1022","type":"BUS"},{"lat":"45.01741","lines":"40,40N,99,81,1","lng":"7.66135","location":"V.O.VIGLIANI / P.BENGASI","name":"BENGASI","placeName":"Torino","id":"1023","type":"BUS"},{"lat":"45.01562","lines":"99,84,40,45,40N","lng":"7.66238","location":"C.ROMA N.83 MONCALIERI","name":"BENGASI SUD","placeName":"Moncalieri","id":"1024","type":"BUS"},{"lat":"45.20438","lines":"3545,3429,3316","lng":"7.89053","location":"_","name":"Chivasso (P.I.Chi.)","placeName":"_","id":"10241","type":"BUS"},{"lat":"45.09981","lines":"62","lng":"7.70801","location":"V.BOTTICELLI N.80","name":"TARTINI","placeName":"Torino","id":"1025","type":"BUS"},{"lat":"45.01525","lines":"40,40N,45,84,99","lng":"7.66284","location":"C.ROMA / V.TIEPOLO  MONCALIERI","name":"BENGASI SUD","placeName":"Moncalieri","id":"1026","type":"BUS"},{"lat":"45.01335","lines":"99,84,45,40N,40","lng":"7.66419","location":"C.ROMA N.51   MONCALIERI","name":"GORIZIA","placeName":"Moncalieri","id":"1027","type":"BUS"},{"lat":"45.01422","lines":"40,45,40N,99,84","lng":"7.66371","location":"C.ROMA N.58  MONCALIERI","name":"GORIZIA","placeName":"Moncalieri","id":"1028","type":"BUS"},{"lat":"45.01169","lines":"84,99,45,40N,40","lng":"7.66557","location":"C.ROMA N.45 MONCALIERI","name":"SAN MATTEO","placeName":"Moncalieri","id":"1029","type":"BUS"},{"lat":"45.09199","lines":"2,1085","lng":"7.65458","location":"C.POTENZA / V.PIANEZZA","name":"PIANEZZA","placeName":"Torino","id":"103","type":"BUS"},{"lat":"45.01187","lines":"40,45,40N,84,99","lng":"7.66562","location":"C.ROMA / V.MONCENISIO MONCALIERI","name":"SAN MATTEO","placeName":"Moncalieri","id":"1030","type":"BUS"},{"lat":"45.00996","lines":"84,99,45,40N,40","lng":"7.66691","location":"C.ROMA N.41/2 MONCALIERI","name":"GOBETTI","placeName":"Moncalieri","id":"1031","type":"BUS"},{"lat":"45.0102","lines":"40N,45,40,84,99","lng":"7.66687","location":"C.ROMA N.30 MONCALIERI","name":"GOBETTI","placeName":"Moncalieri","id":"1032","type":"BUS"},{"lat":"45.00892","lines":"99,84,40,45,40N","lng":"7.66774","location":"C.ROMA N.35 BIS  MONCALIERI","name":"VICO","placeName":"Moncalieri","id":"1033","type":"BUS"},{"lat":"45.00909","lines":"40,45,40N,84,99","lng":"7.66779","location":"C.ROMA FRONTE V.VICO MONCALIERI","name":"VICO","placeName":"Moncalieri","id":"1034","type":"BUS"},{"lat":"45.0067","lines":"99,84,45,40,40N","lng":"7.66993","location":"C.ROMA N.27 MONCALIERI","name":"PESCHIERA","placeName":"Moncalieri","id":"1035","type":"BUS"},{"lat":"45.00706","lines":"45,40,40N,84,99","lng":"7.66979","location":"C.ROMA N.20 MONCALIERI","name":"PESCHIERA","placeName":"Moncalieri","id":"1036","type":"BUS"},{"lat":"45.11311","lines":"1085,3166,3545,3131,3107,3106,5135,3006","lng":"7.70761","location":"_","name":"Torino (C.so G.Cesare/Lungo Stura Lazio)","placeName":"_","id":"10365","type":"BUS"},{"lat":"45.00513","lines":"99,84,45,40,40N","lng":"7.67228","location":"C.ROMA N.19 MONCALIERI","name":"TRIESTE OVEST","placeName":"Moncalieri","id":"1037","type":"BUS"},{"lat":"45.00542","lines":"40N,45,40,99,84","lng":"7.67231","location":"C.ROMA FRONTE CIVICO 17 - MONCALIERI","name":"TRIESTE OVEST","placeName":"Moncalieri","id":"1038","type":"BUS"},{"lat":"45.01584","lines":"38,34","lng":"7.62865","location":"VIA FARINELLI DOPO CORSO UNIONE SOVIETICA","name":"UNIONE SOVIETICA","placeName":"Torino","id":"1039","type":"BUS"},{"lat":"45.09184","lines":"29,2,1085","lng":"7.65458","location":"C.POTENZA DOPO V.PIANEZZA","name":"PIANEZZA","placeName":"Torino","id":"104","type":"BUS"},{"lat":"45.00164","lines":"99,45","lng":"7.67785","location":"C.TRIESTE FRONTE V.S.VINCENZO MONCALIERI","name":"TRIESTE EST","placeName":"Moncalieri","id":"1040","type":"BUS"},{"lat":"45.00002","lines":"67","lng":"7.67921","location":"V.GOITO  FR. N. 5 MONCALIERI","name":"CADUTI PER LA LIBERTA","placeName":"Moncalieri","id":"1041","type":"BUS"},{"lat":"45.15075","lines":"3107,3106,3006,3321","lng":"7.7915","location":"_","name":"Settimo (v. Milano/v. Brescia)","placeName":"_","id":"10419","type":"BUS"},{"lat":"44.99962","lines":"2073,2075,2014,40,45,39,40N,67,81,99,Night Buster 45 marrone","lng":"7.68004","location":"P.CADUTI PER LA LIBERTA' MONCALIERI","name":"CADUTI PER LA LIBERTA","placeName":"Moncalieri","id":"1042","type":"BUS"},{"lat":"45.15381","lines":"3321,3006,3106,3107","lng":"7.79719","location":"_","name":"Settimo (Hotel Green Center)","placeName":"_","id":"10421","type":"BUS"},{"lat":"45.15621","lines":"3106,3107,3006,3321","lng":"7.80154","location":"_","name":"Settimo (Stab. Rejna)","placeName":"_","id":"10424","type":"BUS"},{"lat":"44.99811","lines":"45,99,67","lng":"7.68405","location":"V.CAVOUR N.34 BIS MONCALIERI","name":"CATTANEO","placeName":"Moncalieri","id":"1043","type":"BUS"},{"lat":"45.16403","lines":"3321,3006,3107,3106","lng":"7.81315","location":"_","name":"Settimo (Mezzi Po)","placeName":"_","id":"10430","type":"BUS"},{"lat":"45.16902","lines":"3107,3106,3006,3321","lng":"7.82389","location":"_","name":"Brandizzo (v. Torino/v. Rosselli)","placeName":"_","id":"10436","type":"BUS"},{"lat":"45.1709","lines":"3429,3321,3006,3107,3106","lng":"7.82706","location":"_","name":"Brandizzo (Mercatone)","placeName":"_","id":"10439","type":"BUS"},{"lat":"44.99832","lines":"67,99,45","lng":"7.68423","location":"V.CAVOUR FRONTE N.36 MONCALIERI","name":"CATTANEO","placeName":"Moncalieri","id":"1044","type":"BUS"},{"lat":"45.17358","lines":"3106,3107,3006,3429,3321","lng":"7.8314","location":"_","name":"Brandizzo (Campo Sportivo)","placeName":"_","id":"10442","type":"BUS"},{"lat":"45.17561","lines":"3321,3429,3006,3106,3107","lng":"7.83477","location":"_","name":"Brandizzo (v. Torino/v. Pasubio)","placeName":"_","id":"10445","type":"BUS"},{"lat":"45.17761","lines":"3106,3107,3006,3321,3429","lng":"7.84153","location":"_","name":"Brandizzo (Centro)","placeName":"_","id":"10448","type":"BUS"},{"lat":"44.99982","lines":"45,99,67","lng":"7.68816","location":"V.CAVOUR N.54 BIS MONCALIERI","name":"DELLACHA","placeName":"Moncalieri","id":"1045","type":"BUS"},{"lat":"45.17868","lines":"3321,3429,3006,3106,3107","lng":"7.84724","location":"_","name":"Brandizzo (v. Torino/v. Bologna)","placeName":"_","id":"10451","type":"BUS"},{"lat":"45.18038","lines":"3106,3107,3006,3321,3429","lng":"7.85022","location":"_","name":"Brandizzo (Albergo Pineta)","placeName":"_","id":"10454","type":"BUS"},{"lat":"45.00003","lines":"67,99,45","lng":"7.68835","location":"V.CAVOUR / VICOLO DELLACHA' MONCALIERI","name":"DELLACHA","placeName":"Moncalieri","id":"1046","type":"BUS"},{"lat":"45.19069","lines":"3429,3321,3006,3107,3106","lng":"7.87034","location":"_","name":"Chivasso (Casello 20-Rivoira)","placeName":"_","id":"10460","type":"BUS"},{"lat":"45.1894","lines":"3107,3106,3006,3429,3321","lng":"7.87825","location":"_","name":"Chivasso (str. Torino 45)","placeName":"_","id":"10463","type":"BUS"},{"lat":"45.18942","lines":"3429,3321,3901,3006,3107,3106","lng":"7.88481","location":"_","name":"Chivasso (Politeama)","placeName":"_","id":"10468","type":"BUS"},{"lat":"45.18967","lines":"3107,3121,3006,4108,3429,3316,3901,3321","lng":"7.88649","location":"_","name":"Chivasso (v. Lungo P.za D'Armi)","placeName":"_","id":"10469","type":"BUS"},{"lat":"45.00039","lines":"45,2014,2075,2073,99,67","lng":"7.69375","location":"V.TENIVELLI / P.FAILLA MONCALIERI","name":"FAILLA ","placeName":"Moncalieri","id":"1047","type":"BUS"},{"lat":"45.18743","lines":"4108,3106,3105,3107,3006,3121,3429,3316,3321,3901","lng":"7.88952","location":"_","name":"Chivasso (v. Po)","placeName":"_","id":"10472","type":"BUS"},{"lat":"45.17742","lines":"3006,3107,3105","lng":"7.89193","location":"_","name":"Castagneto Po (bv. Chivasso)","placeName":"_","id":"10475","type":"BUS"},{"lat":"45.17722","lines":"3107,3106,3121","lng":"7.88948","location":"_","name":"Castagneto Po (bv. Ponte Po)","placeName":"_","id":"10478","type":"BUS"},{"lat":"45.0158","lines":"71,38,34","lng":"7.6302","location":"VIA FARINELLI FRONTE VIA COGGIOLA","name":"OSPEDALE VALLETTA","placeName":"Torino","id":"1048","type":"BUS"},{"lat":"45.17671","lines":"3006,3107,3105,3106","lng":"7.91013","location":"_","name":"Castagneto Po (Baraccone)","placeName":"_","id":"10481","type":"BUS"},{"lat":"45.17525","lines":"3107,3006,3106","lng":"7.9202","location":"_","name":"San Sebastiano (Gilardini)","placeName":"_","id":"10484","type":"BUS"},{"lat":"45.17194","lines":"3006,3107,3106","lng":"7.93024","location":"_","name":"San Sebastiano (Abate)","placeName":"_","id":"10487","type":"BUS"},{"lat":"45.00063","lines":"45,67,2073,2075,2014,99","lng":"7.69333","location":"V.TENIVELLI FRONTE P.FAILLA MONCALIERI","name":"FAILLA","placeName":"Moncalieri","id":"1049","type":"BUS"},{"lat":"45.17101","lines":"3105,3106,3107,3006","lng":"7.93767","location":"_","name":"San Sebastiano (Abate)","placeName":"_","id":"10490","type":"BUS"},{"lat":"45.16981","lines":"3006,3107,3106,3105","lng":"7.94607","location":"_","name":"San Sebastiano (Cadauta)","placeName":"_","id":"10493","type":"BUS"},{"lat":"45.16854","lines":"3107,3006,3105,3106","lng":"7.95617","location":"_","name":"San Sebastiano (Caserma)","placeName":"_","id":"10496","type":"BUS"},{"lat":"45.16652","lines":"3006,3107,3105,3106","lng":"7.97732","location":"_","name":"San Sebastiano (Cascina Moglia)","placeName":"_","id":"10499","type":"BUS"},{"lat":"45.08819","lines":"2,1085","lng":"7.65204","location":"C.POTENZA / C.REGINA MARGHERITA","name":"REGINA MARGHERITA","placeName":"Torino","id":"105","type":"BUS"},{"lat":"44.9978","lines":"99,45,2014,2073,2075,67,70","lng":"7.70244","location":"STR.GENOVA N. 64","name":"BUOZZI","placeName":"Moncalieri","id":"1050","type":"BUS"},{"lat":"45.16499","lines":"3107,3105,3006,3106","lng":"7.98745","location":"_","name":"Lauriano (Luxottica)","placeName":"_","id":"10502","type":"BUS"},{"lat":"45.16359","lines":"3006,3107,3105,3106","lng":"7.99667","location":"_","name":"Lauriano (Bivio)","placeName":"_","id":"10505","type":"BUS"},{"lat":"45.16017","lines":"3107,3105,3106,3006","lng":"8.02028","location":"_","name":"Monteu Da Po (Bivio)","placeName":"_","id":"10508","type":"BUS"},{"lat":"44.998","lines":"2073,2014,2075,67,70,99,45","lng":"7.70227","location":"STR.GENOVA N.145  MONCALIERI","name":"BUOZZI","placeName":"Moncalieri","id":"1051","type":"BUS"},{"lat":"45.15869","lines":"3006,3107,3105,3106","lng":"8.03031","location":"_","name":"Monteu Da Po (Fontana Nera)","placeName":"_","id":"10511","type":"BUS"},{"lat":"45.15781","lines":"3107,3105,3006,3106","lng":"8.03553","location":"_","name":"Cavagnolo (v. Ca' D'Ostino)","placeName":"_","id":"10514","type":"BUS"},{"lat":"45.15647","lines":"3006,3105,3107,3106","lng":"8.04433","location":"_","name":"Cavagnolo (Piana di Cavagnolo)","placeName":"_","id":"10517","type":"BUS"},{"lat":"44.99632","lines":"45,67,70,2103,99","lng":"7.70574","location":"STR.GENOVA N.76 TER MONCALIERI","name":"NASI","placeName":"Moncalieri","id":"1052","type":"BUS"},{"lat":"45.15377","lines":"3106,3107,3105,3006","lng":"8.05044","location":"_","name":"Cavagnolo (Centro)","placeName":"_","id":"10520","type":"BUS"},{"lat":"45.15414","lines":"3006,3331,3107","lng":"8.05688","location":"_","name":"Brusasco","placeName":"_","id":"10523","type":"BUS"},{"lat":"45.15609","lines":"3107,3106,3006,3331","lng":"8.0611","location":"_","name":"Brusasco (Scuole)","placeName":"_","id":"10526","type":"BUS"},{"lat":"44.99702","lines":"99,45,70","lng":"7.70453","location":"STR.GENOVA / V. MONTANO MONCALIERI","name":"NASI","placeName":"Moncalieri","id":"1053","type":"BUS"},{"lat":"45.19545","lines":"3901,3316,3429,3106,4108","lng":"7.89353","location":"_","name":"Chivasso (Posta)","placeName":"_","id":"10535","type":"BUS"},{"lat":"44.99546","lines":"67,70","lng":"7.7098","location":"V.BOCCARDO N.9 MONCALIERI","name":"GENOVA OVEST","placeName":"Moncalieri","id":"1054","type":"BUS"},{"lat":"45.18857","lines":"4108,3107,3106,3121,3006,3316,3901,3429,3321","lng":"7.89354","location":"_","name":"Chivasso (v.le Vittorio Veneto)","placeName":"_","id":"10541","type":"BUS"},{"lat":"45.19292","lines":"3006,3107,3105,3106,3121,4108,3429,3316,3321,3901","lng":"7.88793","location":"_","name":"Chivasso (Movicentro)","placeName":"_","id":"10544","type":"BUS"},{"lat":"45.00058","lines":"67,82,99,81,Night Buster 45 marrone,45,40,40N,39","lng":"7.67639","location":"PONTE FIUME PO DOPO V.PASTRENGO  MONCALIERI","name":"PONTE PO","placeName":"Moncalieri","id":"1055","type":"BUS"},{"lat":"44.99885","lines":"40,40N","lng":"7.6786","location":"V. M. DELLA LIBERTA' PRIMA DI V.LE STAZIONE MONC.","name":"STAZIONE CAPOLINEA","placeName":"Moncalieri","id":"1056","type":"BUS"},{"lat":"45.14722","lines":"3321,3107,3106,3006","lng":"7.78525","location":"_","name":"Settimo (Cimitero)","placeName":"_","id":"10560","type":"BUS"},{"lat":"45.16656","lines":"3107","lng":"7.95592","location":"_","name":"Caserma (bv. Stazione FS)","placeName":"_","id":"10565","type":"BUS"},{"lat":"45.15904","lines":"3107","lng":"7.95293","location":"_","name":"Caserma-Colombaro (Bar)","placeName":"_","id":"10568","type":"BUS"},{"lat":"44.9952","lines":"39,1 Nichelino","lng":"7.64765","location":"VIA GIUSTI N.6 NICHELINO","name":"TORINO","placeName":"Nichelino","id":"1057","type":"BUS"},{"lat":"45.15758","lines":"3107","lng":"7.95085","location":"_","name":"Caserma-Colombaro (Torre)","placeName":"_","id":"10571","type":"BUS"},{"lat":"45.15384","lines":"3107","lng":"7.94326","location":"_","name":"San Sebastiano (v. Vigonda)","placeName":"_","id":"10574","type":"BUS"},{"lat":"45.14535","lines":"3107","lng":"7.93538","location":"_","name":"San Sebastiano (Rottenga)","placeName":"_","id":"10577","type":"BUS"},{"lat":"45.09923","lines":"3","lng":"7.64878","location":"C.SO TOSCANA / C.SO LOMBARDIA","name":"LOMBARDIA","placeName":"TORINO","id":"1058","type":"BUS"},{"lat":"45.13942","lines":"3107","lng":"7.93933","location":"_","name":"Casalborgone (Bocciodromo)","placeName":"_","id":"10580","type":"BUS"},{"lat":"45.13265","lines":"3107","lng":"7.94107","location":"_","name":"Casalborgone (bv. Ceraglio)","placeName":"_","id":"10583","type":"BUS"},{"lat":"45.12904","lines":"3107","lng":"7.94344","location":"_","name":"Casalborgone (Centro)","placeName":"_","id":"10586","type":"BUS"},{"lat":"45.09907","lines":"3","lng":"7.65036","location":"C.SO TOSCANA / C.SO LOMBARDIA","name":"LOMBARDIA","placeName":"Torino","id":"1059","type":"BUS"},{"lat":"45.08806","lines":"29,2,1085","lng":"7.65205","location":"C.POTENZA DOPO C.REGINA MARGHERITA","name":"REGINA MARGHERITA","placeName":"Torino","id":"106","type":"BUS"},{"lat":"45.09802","lines":"3","lng":"7.65328","location":"C.SO TOSCANA N. 73","name":"BORSI","placeName":"TORINO","id":"1060","type":"BUS"},{"lat":"45.06397","lines":"3105","lng":"8.09835","location":"_","name":"Montiglio","placeName":"_","id":"10607","type":"BUS"},{"lat":"45.09809","lines":"3","lng":"7.65365","location":"C.SO TOSCANA / V. BORSI","name":"BORSI","placeName":"TORINO","id":"1061","type":"BUS"},{"lat":"45.05117","lines":"3107","lng":"8.04962","location":"_","name":"Piova' Massaia (P.za San Martino)","placeName":"_","id":"10610","type":"BUS"},{"lat":"45.12338","lines":"3107","lng":"7.95441","location":"_","name":"Casalborgone (Val Frascarina)","placeName":"_","id":"10616","type":"BUS"},{"lat":"45.11945","lines":"3107","lng":"7.96432","location":"_","name":"Casalborgone (Bagatta)","placeName":"_","id":"10619","type":"BUS"},{"lat":"45.118","lines":"3107","lng":"7.9725","location":"_","name":"Casalborgone (Brose Lazzarino)","placeName":"_","id":"10622","type":"BUS"},{"lat":"45.11053","lines":"3107","lng":"7.9765","location":"_","name":"Casalborgone (Cascina Roletto)","placeName":"_","id":"10625","type":"BUS"},{"lat":"45.1069","lines":"3107","lng":"7.97959","location":"_","name":"Gonengo","placeName":"_","id":"10628","type":"BUS"},{"lat":"45.00123","lines":"39","lng":"7.64089","location":"V.STUPINIGI DOPO V.I.MAGGIO NICHELINO","name":"XXV APRILE","placeName":"Nichelino","id":"1063","type":"BUS"},{"lat":"45.10254","lines":"3107","lng":"7.98288","location":"_","name":"Gonengo (str. Quasso)","placeName":"_","id":"10631","type":"BUS"},{"lat":"45.09627","lines":"3107","lng":"7.98533","location":"_","name":"Gonengo (Perello)","placeName":"_","id":"10634","type":"BUS"},{"lat":"45.09403","lines":"3107","lng":"7.9866","location":"_","name":"Gonengo (Madonna Nera)","placeName":"_","id":"10637","type":"BUS"},{"lat":"45.00114","lines":"1 Nichelino,39","lng":"7.64016","location":"V.STUPINIGI FRONTE V.I.MAGGIO NICHELINO","name":"XXV APRILE","placeName":"Nichelino","id":"1064","type":"BUS"},{"lat":"45.08846","lines":"3107","lng":"7.98911","location":"_","name":"Gonengo (Besolo)","placeName":"_","id":"10640","type":"BUS"},{"lat":"45.08936","lines":"3107","lng":"8.00031","location":"_","name":"Gonengo (bv. Marmorito)","placeName":"_","id":"10643","type":"BUS"},{"lat":"45.09483","lines":"3107","lng":"8.00093","location":"_","name":"Aramengo (Bivio)","placeName":"_","id":"10646","type":"BUS"},{"lat":"45.0923","lines":"3107","lng":"8.00801","location":"_","name":"Aramengo (Braia)","placeName":"_","id":"10649","type":"BUS"},{"lat":"45.00175","lines":"48,39,96,2075,1 Nichelino,35 navetta,14","lng":"7.63392","location":"V.XXV APRILE / STR DEI CACCIATORI NICHELINO","name":"PALLAVICINO","placeName":"Nichelino","id":"1065","type":"BUS"},{"lat":"45.08855","lines":"3107","lng":"8.01533","location":"_","name":"Aramengo (Gorrea)","placeName":"_","id":"10652","type":"BUS"},{"lat":"45.07779","lines":"3107","lng":"8.0237","location":"_","name":"Cocconato (Bivio)","placeName":"_","id":"10655","type":"BUS"},{"lat":"45.07149","lines":"3107","lng":"8.03316","location":"_","name":"Rocco (Tabiella)","placeName":"_","id":"10658","type":"BUS"},{"lat":"45.00149","lines":"14,96,39,48,1 Nichelino,2075","lng":"7.63585","location":"V.XXV APRILE FRONTE N.158  NICHELINO","name":"PALLAVICINO","placeName":"Nichelino","id":"1066","type":"BUS"},{"lat":"45.04893","lines":"3107","lng":"8.04123","location":"_","name":"Rocco (bv. Cerreto)","placeName":"_","id":"10661","type":"BUS"},{"lat":"45.04328","lines":"3107","lng":"8.04284","location":"_","name":"Gallareto","placeName":"_","id":"10664","type":"BUS"},{"lat":"45.00495","lines":"96,39","lng":"7.62955","location":"STR DEI CACCIATORI / V.ASSIETTA NICHELINO","name":"PRACAVALLO","placeName":"Nichelino","id":"1067","type":"BUS"},{"lat":"45.00453","lines":"39,96","lng":"7.63004","location":"STR DEI CACCIATORI DOPO V.PRACAVALLO NICHELINO","name":"PRACAVALLO","placeName":"Nichelino","id":"1068","type":"BUS"},{"lat":"45.00773","lines":"96,39","lng":"7.62295","location":"STR.CACCIATORI FRONTE N.111 NICHELINO","name":"CESANA","placeName":"Nichelino","id":"1069","type":"BUS"},{"lat":"45.08537","lines":"2","lng":"7.65007","location":"C.LECCE DOPO C.REGINA M.","name":"APPIO CLAUDIO","placeName":"Torino","id":"107","type":"BUS"},{"lat":"45.00754","lines":"39,96","lng":"7.6228","location":"STR DEI CACCIATORI N.111 NICHELINO","name":"CESANA","placeName":"Nichelino","id":"1070","type":"BUS"},{"lat":"45.07035","lines":"1087","lng":"7.41945","location":"_","name":"Buttigliera (Le Fronde)","placeName":"_","id":"10700","type":"BUS"},{"lat":"45.07582","lines":"1087","lng":"7.40252","location":"_","name":"Avigliana (v. S.Agostino 4-Ospedale)","placeName":"_","id":"10703","type":"BUS"},{"lat":"45.001","lines":"35,35 navetta,14,3545","lng":"7.63205","location":"V. DEBOUCHE DOPO ROTONDA DELLE ALPI","name":"POLIAMBULATORI","placeName":"Nichelino","id":"1071","type":"BUS"},{"lat":"45.07637","lines":"36,1,Night Buster 1 arancio","lng":"7.6667","location":"C.FRANCIA / V.PRINCIPI D'ACAJA","name":"D'ACAJA","placeName":"Torino","id":"1072","type":"BUS"},{"lat":"45.0136","lines":"Night Buster 4 azzurra,96,41,4 navetta,39","lng":"7.62532","location":"C.UNIONE SOVIETICA DOPO STR.CASTELLO MIRAFIORI","name":"CASTELLO DI MIRAFIORI","placeName":"Torino","id":"1073","type":"BUS"},{"lat":"44.89593","lines":"2027,3023,3105","lng":"8.20847","location":"_","name":"Asti (Capolinea)","placeName":"_","id":"10730","type":"BUS"},{"lat":"45.16005","lines":"3107","lng":"7.92889","location":"_","name":"Saronsella","placeName":"_","id":"10733","type":"BUS"},{"lat":"45.07384","lines":"3107","lng":"7.69351","location":"_","name":"Torino (Lungo Dora Siena/v. Rossini)","placeName":"_","id":"10739","type":"BUS"},{"lat":"45.01355","lines":"41,4 navetta,39,Night Buster 4 azzurra,96","lng":"7.62462","location":"C.UNIONE SOVIETICA / STR DEL DROSSO","name":"CASTELLO DI MIRAFIORI","placeName":"Torino","id":"1074","type":"BUS"},{"lat":"45.0165","lines":"96,41,4 navetta,38,39,34,Night Buster 4 azzurra","lng":"7.62862","location":"C.UNIONE SOVIETICA DOPO V. FARINELLI","name":"FARINELLI","placeName":"Torino","id":"1075","type":"BUS"},{"lat":"45.01587","lines":"Night Buster 4 azzurra,41,39,4 navetta,96","lng":"7.62718","location":"C.UNIONE SOVIETICA DOPO V. PLAVA","name":"PLAVA","placeName":"Torino","id":"1076","type":"BUS"},{"lat":"45.01997","lines":"98,95 /,97,99,94,90,39,4 navetta,41,Night Buster 4 azzurra,63 /","lng":"7.63252","location":"C.UNIONE SOVIETICA / V.BARBERA","name":"BISCARETTI","placeName":"Torino","id":"1077","type":"BUS"},{"lat":"45.01909","lines":"Night Buster 4 azzurra,96,41,38,39,4 navetta,34","lng":"7.63079","location":"C.UNIONE SOVIETICA DOPO V.BISCARETTI DI RUFFIA","name":"BISCARETTI","placeName":"Torino","id":"1078","type":"BUS"},{"lat":"45.10927","lines":"3107,3106","lng":"7.7758","location":"_","name":"San Mauro (Scambio Peso)","placeName":"_","id":"10787","type":"BUS"},{"lat":"45.02186","lines":"95 /,90,94,98,99,97,63 /,Night Buster 4 azzurra,39,41,4 navetta","lng":"7.63464","location":"C.UNIONE SOVIETICA / V.IMPERIA","name":"IMPERIA","placeName":"Torino","id":"1079","type":"BUS"},{"lat":"45.11521","lines":"3107,3106,Night Buster verde 68","lng":"7.78209","location":"_","name":"San Mauro (Sambuy)","placeName":"_","id":"10793","type":"BUS"},{"lat":"45.11719","lines":"Night Buster verde 68,3107,3106","lng":"7.79447","location":"_","name":"Castiglione (Molino)","placeName":"_","id":"10796","type":"BUS"},{"lat":"45.11729","lines":"3107,3106,Night Buster verde 68","lng":"7.80194","location":"_","name":"Castiglione (Pedaggio)","placeName":"_","id":"10799","type":"BUS"},{"lat":"45.08562","lines":"29,2","lng":"7.65046","location":"C.LECCE N.122","name":"APPIO CLAUDIO","placeName":"Torino","id":"108","type":"BUS"},{"lat":"45.02268","lines":"Night Buster 4 azzurra,39,4 navetta,41,63 /,98,94,95 /,99,97,90","lng":"7.63406","location":"C.UNIONE SOVIETICA DOPO P.LE C.MARIO","name":"IMPERIA","placeName":"Torino","id":"1080","type":"BUS"},{"lat":"45.11914","lines":"Night Buster verde 68,3107,3106","lng":"7.80887","location":"_","name":"Castiglione (Fornace)","placeName":"_","id":"10802","type":"BUS"},{"lat":"45.12159","lines":"3106,3107,Night Buster verde 68","lng":"7.81445","location":"_","name":"Castiglione (Rezza)","placeName":"_","id":"10805","type":"BUS"},{"lat":"45.12485","lines":"Night Buster verde 68,3107,3106","lng":"7.82021","location":"_","name":"Castiglione (Sant' Eufemia)","placeName":"_","id":"10808","type":"BUS"},{"lat":"45.01823","lines":"96,34,4 navetta,38,39,41,Night Buster 4 azzurra","lng":"7.63053","location":"C.UNIONE SOVIETICA / V.PAVESE","name":"PAVESE","placeName":"Torino","id":"1081","type":"BUS"},{"lat":"45.12765","lines":"Night Buster verde 68,3107,3106","lng":"7.82226","location":"_","name":"Gassino (Circonvallazione/Diaz)","placeName":"_","id":"10811","type":"BUS"},{"lat":"45.13048","lines":"3107,3106,Night Buster verde 68","lng":"7.82528","location":"_","name":"Gassino (Centro)","placeName":"_","id":"10814","type":"BUS"},{"lat":"45.13344","lines":"3107,3106","lng":"7.82922","location":"_","name":"Gassino (Sobrero)","placeName":"_","id":"10818","type":"BUS"},{"lat":"45.07649","lines":"1,Night Buster 1 arancio,36","lng":"7.6644","location":"C.FRANCIA / V.PRINCIPI D'ACAJA","name":"D'ACAJA","placeName":"Torino","id":"1082","type":"BUS"},{"lat":"45.13667","lines":"3107,3106","lng":"7.83305","location":"_","name":"Gassino (v. Monte Cervino)","placeName":"_","id":"10820","type":"BUS"},{"lat":"45.14015","lines":"3107,3106","lng":"7.83709","location":"_","name":"Gassino (v. Val Baudana)","placeName":"_","id":"10821","type":"BUS"},{"lat":"45.14587","lines":"3107,3106","lng":"7.84378","location":"_","name":"San Raffaele Cimena (v. Torino 45)","placeName":"_","id":"10823","type":"BUS"},{"lat":"45.14795","lines":"3106,3107","lng":"7.84616","location":"_","name":"Piana San Raffaele","placeName":"_","id":"10826","type":"BUS"},{"lat":"45.1553","lines":"3107,3106","lng":"7.8523","location":"_","name":"San Raffaele Cimena (v. Chivasso 64)","placeName":"_","id":"10829","type":"BUS"},{"lat":"45.0241","lines":"18","lng":"7.63633","location":"P.LE CAIO MARIO","name":"CAIO MARIO CAPOLINEA","placeName":"Torino","id":"1083","type":"BUS"},{"lat":"45.15759","lines":"3106,3107","lng":"7.85266","location":"_","name":"San Raffaele Cimena (v. Chivasso 41)","placeName":"_","id":"10832","type":"BUS"},{"lat":"45.16444","lines":"3107,3106","lng":"7.85696","location":"_","name":"San Raffaele Cimena (Ca' Rossa)","placeName":"_","id":"10835","type":"BUS"},{"lat":"45.16859","lines":"3107,3106","lng":"7.85888","location":"_","name":"San Raffaele Cimena","placeName":"_","id":"10838","type":"BUS"},{"lat":"44.99833","lines":"48,41,CS2,3903","lng":"7.60741","location":"V.LE TORINO N.10 NICHELINO","name":"STUPINIGI","placeName":"Nichelino","id":"1084","type":"BUS"},{"lat":"45.1715","lines":"3107,3106","lng":"7.87554","location":"_","name":"Castagneto Po (Serrauda)","placeName":"_","id":"10841","type":"BUS"},{"lat":"45.17501","lines":"3107,3106","lng":"7.87915","location":"_","name":"Castagneto Po (Galleani)","placeName":"_","id":"10844","type":"BUS"},{"lat":"45.17653","lines":"3106,3107","lng":"7.88399","location":"_","name":"Castagneto Po (bv. Castagneto Po)","placeName":"_","id":"10847","type":"BUS"},{"lat":"45.00125","lines":"41,48","lng":"7.61053","location":"V.BORGARETTO DOPO V.TORINO  NICHELINO","name":"TORINO","placeName":"Nichelino","id":"1085","type":"BUS"},{"lat":"45.14734","lines":"3107","lng":"7.85294","location":"_","name":"San Raffaele Cimena (Fontane)","placeName":"_","id":"10853","type":"BUS"},{"lat":"45.14915","lines":"3107","lng":"7.85767","location":"_","name":"San Raffaele Cimena (Tetti Baudino)","placeName":"_","id":"10856","type":"BUS"},{"lat":"45.14833","lines":"3107","lng":"7.85935","location":"_","name":"San Raffaele Cimena (Cascina Camino)","placeName":"_","id":"10859","type":"BUS"},{"lat":"45.15062","lines":"3107","lng":"7.86126","location":"_","name":"San Raffaele Cimena (Cascina Boasso)","placeName":"_","id":"10862","type":"BUS"},{"lat":"45.14934","lines":"3107","lng":"7.86484","location":"_","name":"San Raffaele Cimena (Cascina Manzoni)","placeName":"_","id":"10865","type":"BUS"},{"lat":"45.14578","lines":"3107","lng":"7.87068","location":"_","name":"San Raffaele Cimena Alto (bivio)","placeName":"_","id":"10868","type":"BUS"},{"lat":"45.14548","lines":"3107","lng":"7.87447","location":"_","name":"Raccone (Cascina Barbasso)","placeName":"_","id":"10871","type":"BUS"},{"lat":"45.14365","lines":"3107","lng":"7.87519","location":"_","name":"Raccone","placeName":"_","id":"10874","type":"BUS"},{"lat":"45.00381","lines":"48,41","lng":"7.60542","location":"VIA DON MINZONI N.10(BORGARETTO)  BEINASCO","name":"DON MINZONI","placeName":"Beinasco","id":"1088","type":"BUS"},{"lat":"45.00578","lines":"41,48","lng":"7.60322","location":"V.LE GIOVANNI XXIII / V.SANGONE  BEINASCO","name":"GORIZIA","placeName":"Beinasco","id":"1089","type":"BUS"},{"lat":"45.08274","lines":"2,22","lng":"7.64835","location":"C.LECCE DOPO V.LESSONA","name":"LESSONA","placeName":"Torino","id":"109","type":"BUS"},{"lat":"45.00572","lines":"41","lng":"7.60422","location":"V.GORIZIA FRONTE V.UDINE BEINASCO","name":"MARTIRI DELLA LIBERTA","placeName":"Beinasco","id":"1090","type":"BUS"},{"lat":"45.1919","lines":"3331,3006,3107","lng":"8.10788","location":"_","name":"Crescentino (P.za Matteotti)","placeName":"_","id":"10900","type":"BUS"},{"lat":"45.19367","lines":"3331","lng":"8.10718","location":"_","name":"Crescentino (stazione)","placeName":"_","id":"10903","type":"BUS"},{"lat":"45.19186","lines":"3006","lng":"8.09993","location":"_","name":"Crescentino (P.za Marconi)","placeName":"_","id":"10905","type":"BUS"},{"lat":"45.17445","lines":"3006,3107,3331","lng":"8.09858","location":"_","name":"Verrua (bivio)","placeName":"_","id":"10915","type":"BUS"},{"lat":"45.16833","lines":"3006,3107","lng":"8.08923","location":"_","name":"Verrua (SP 107 civ. 135)","placeName":"_","id":"10918","type":"BUS"},{"lat":"45.0084","lines":"41","lng":"7.60621","location":"V.GORIZIA FRONTE N.39 BEINASCO","name":"GORIZIA N. 39","placeName":"Beinasco","id":"1092","type":"BUS"},{"lat":"45.16645","lines":"3107,3006","lng":"8.0852","location":"_","name":"Brusasco (Verrua Siberia)","placeName":"_","id":"10920","type":"BUS"},{"lat":"45.15921","lines":"3006,3107","lng":"8.07589","location":"_","name":"Brusasco (Trucco)","placeName":"_","id":"10925","type":"BUS"},{"lat":"45.15173","lines":"3331","lng":"8.0925","location":"_","name":"Verrua Savoia (fraz. Monticelli)","placeName":"_","id":"10926","type":"BUS"},{"lat":"45.15652","lines":"3331","lng":"8.09349","location":"_","name":"Verrua Savoia (fraz.Valentino - Municipio)","placeName":"_","id":"10927","type":"BUS"},{"lat":"45.1605","lines":"3331","lng":"8.09575","location":"_","name":"Verrua Savoia (fraz. San Giovanni)","placeName":"_","id":"10928","type":"BUS"},{"lat":"45.16361","lines":"3331","lng":"8.09842","location":"_","name":"Verrua Savoia (bv. fraz. Montaldo)","placeName":"_","id":"10929","type":"BUS"},{"lat":"45.00084","lines":"3545,35,14","lng":"7.63243","location":"V DEBOUCHE' / V.XXV APRILE  NICHELINO","name":"DEBOUCHE NORD","placeName":"Nichelino","id":"1093","type":"BUS"},{"lat":"45.16327","lines":"3331","lng":"8.10069","location":"_","name":"Verrua Savoia (bv. fraz. Carbignano)","placeName":"_","id":"10930","type":"BUS"},{"lat":"45.16902","lines":"3331","lng":"8.10482","location":"_","name":"Verrua Savoia (fraz. Cascine)","placeName":"_","id":"10931","type":"BUS"},{"lat":"45.17232","lines":"3331","lng":"8.10935","location":"_","name":"Verrua Savoia (sp111 km 1)","placeName":"_","id":"10933","type":"BUS"},{"lat":"45.15804","lines":"3331","lng":"8.13124","location":"_","name":"Verrua Savoia (fraz. Case Cocetti)","placeName":"_","id":"10934","type":"BUS"},{"lat":"45.14269","lines":"3331","lng":"8.12573","location":"_","name":"Verrua Savoia (fraz. Casetto)","placeName":"_","id":"10935","type":"BUS"},{"lat":"45.13796","lines":"3331","lng":"8.1232","location":"_","name":"Verrua Savoia (fraz. Campasso)","placeName":"_","id":"10936","type":"BUS"},{"lat":"45.13576","lines":"3331","lng":"8.11428","location":"_","name":"Verrua Savoia (fraz. Cervoto)","placeName":"_","id":"10937","type":"BUS"},{"lat":"45.14589","lines":"3331","lng":"8.12839","location":"_","name":"Verrua Savoia (fraz. Bazzoli)","placeName":"_","id":"10938","type":"BUS"},{"lat":"45.14681","lines":"3331","lng":"8.13975","location":"_","name":"Verrua Savoia (fraz. Fravagnano-Chiesa)","placeName":"_","id":"10939","type":"BUS"},{"lat":"45.00887","lines":"41","lng":"7.60696","location":"V.R.BERNARDO N.15 BEINASCO","name":"RONDO BERNARDO N.15","placeName":"Beinasco","id":"1094","type":"BUS"},{"lat":"45.15108","lines":"3331","lng":"8.12731","location":"_","name":"Verrua Savoia (fraz. Sulpiano)","placeName":"_","id":"10940","type":"BUS"},{"lat":"45.15342","lines":"3331","lng":"8.12359","location":"_","name":"Verrua Savoia (fraz. Rivalta-dir Verrua)","placeName":"_","id":"10941","type":"BUS"},{"lat":"45.15361","lines":"3331","lng":"8.11454","location":"_","name":"Verrua Savoia (fraz. Camorano)","placeName":"_","id":"10942","type":"BUS"},{"lat":"45.15432","lines":"3331","lng":"8.10774","location":"_","name":"Verrua Savoia (fraz. Bila)","placeName":"_","id":"10943","type":"BUS"},{"lat":"45.15446","lines":"3331","lng":"8.09715","location":"_","name":"Verrua Savoia (fraz. Ronzo-dir.Brusasco)","placeName":"_","id":"10944","type":"BUS"},{"lat":"45.15628","lines":"3331","lng":"8.08043","location":"_","name":"Verrua Savoia (fraz. Tabbia)","placeName":"_","id":"10945","type":"BUS"},{"lat":"45.15736","lines":"3331","lng":"8.07549","location":"_","name":"Verrua Savoia (loc. Trucco)","placeName":"_","id":"10946","type":"BUS"},{"lat":"45.15769","lines":"3331","lng":"8.07334","location":"_","name":"Verrua Savoia (bv. fraz. Tabbia)","placeName":"_","id":"10947","type":"BUS"},{"lat":"45.16275","lines":"3331","lng":"8.09018","location":"_","name":"Verrua Savoia (fraz. Calliano)","placeName":"_","id":"10948","type":"BUS"},{"lat":"45.08854","lines":"32","lng":"7.64885","location":"C.REGINA MARGHERITA 330/B (VIGILI DEL FUOCO)","name":"VIGILI DEL FUOCO","placeName":"Torino","id":"1095","type":"BUS"},{"lat":"45.18097","lines":"3331","lng":"8.11059","location":"_","name":"Verrua Savoia (fraz. Mezzi)","placeName":"_","id":"10950","type":"BUS"},{"lat":"45.00721","lines":"41","lng":"7.61091","location":"V.R.BERNARDO FRONTE N.18 BEINASCO","name":"RONDO BERNARDO N.16","placeName":"Beinasco","id":"1096","type":"BUS"},{"lat":"45.00164","lines":"48,14,96,2075","lng":"7.64016","location":"V.XXV APRILE / V.STUPINIGI NICHELINO","name":"STUPINIGI","placeName":"Nichelino","id":"1097","type":"BUS"},{"lat":"45.12694","lines":"3096","lng":"7.84009","location":"_","name":"Bussolino (Carrozzeria)","placeName":"_","id":"10979","type":"BUS"},{"lat":"45.00549","lines":"41","lng":"7.61515","location":"V.R.BERNARDO N.1 NICHELINO","name":"TORINO","placeName":"Nichelino","id":"1098","type":"BUS"},{"lat":"45.12666","lines":"3096","lng":"7.84505","location":"_","name":"Bussolino (Ternenga)","placeName":"_","id":"10982","type":"BUS"},{"lat":"45.12575","lines":"3096","lng":"7.85271","location":"_","name":"Bussolino","placeName":"_","id":"10985","type":"BUS"},{"lat":"45.12302","lines":"3096","lng":"7.85708","location":"_","name":"Sciolze (Villa delle Rose)","placeName":"_","id":"10988","type":"BUS"},{"lat":"45.00567","lines":"41","lng":"7.61595","location":"V.LE TORINO PRIMA DI V.R.BERNARDO  NICHELINO","name":"RONDO BERNARDO","placeName":"Nichelino","id":"1099","type":"BUS"},{"lat":"45.12078","lines":"3096","lng":"7.86048","location":"_","name":"Sciolze (Bivio)","placeName":"_","id":"10991","type":"BUS"},{"lat":"45.11769","lines":"3096","lng":"7.86231","location":"_","name":"Sciolze (reg. Mulino)","placeName":"_","id":"10994","type":"BUS"},{"lat":"45.11361","lines":"3096","lng":"7.8682","location":"_","name":"Sciolze (Allasio)","placeName":"_","id":"10997","type":"BUS"},{"lat":"45.08343","lines":"2,22","lng":"7.64899","location":"C.LECCE DOPO V.LESSONA","name":"LESSONA","placeName":"Torino","id":"110","type":"BUS"},{"lat":"45.00987","lines":"41,39","lng":"7.62117","location":"C.UNIONE SOVIETICA DOPO PONTE SANGONE","name":"SANGONE","placeName":"Torino","id":"1100","type":"BUS"},{"lat":"45.10806","lines":"3096","lng":"7.87935","location":"_","name":"Sciolze (Tetti Prissolo)","placeName":"_","id":"11000","type":"BUS"},{"lat":"45.10124","lines":"3096","lng":"7.87485","location":"_","name":"Sciolze (reg. Valle)","placeName":"_","id":"11003","type":"BUS"},{"lat":"45.09818","lines":"3096","lng":"7.87174","location":"_","name":"Sciolze (reg. Valle)","placeName":"_","id":"11006","type":"BUS"},{"lat":"45.09637","lines":"3096","lng":"7.87425","location":"_","name":"Sciolze (reg. Fornace)","placeName":"_","id":"11009","type":"BUS"},{"lat":"45.01015","lines":"41","lng":"7.62085","location":"C.UNIONE SOVIETICA / PONTE SANGONE","name":"SANGONE","placeName":"Torino","id":"1101","type":"BUS"},{"lat":"45.09519","lines":"3096","lng":"7.87604","location":"_","name":"Sciolze (v. Roma)","placeName":"_","id":"11012","type":"BUS"},{"lat":"45.09418","lines":"3096","lng":"7.88274","location":"_","name":"Sciolze (Tetti Rossetti)","placeName":"_","id":"11015","type":"BUS"},{"lat":"45.09604","lines":"3096","lng":"7.89025","location":"_","name":"Sciolze (bv. Vernone)","placeName":"_","id":"11018","type":"BUS"},{"lat":"45.02418","lines":"3106,2014,1511,1510,1085,95 /","lng":"7.63696","location":"C.UNIONE SOVIETICA / V.NICHELINO","name":"CAIO MARIO","placeName":"Torino","id":"1102","type":"BUS"},{"lat":"45.09943","lines":"3096","lng":"7.89031","location":"_","name":"Sciolze (Tetti Franchi)","placeName":"_","id":"11021","type":"BUS"},{"lat":"45.10267","lines":"3096","lng":"7.89141","location":"_","name":"Sciolze (Tetti Aie)","placeName":"_","id":"11024","type":"BUS"},{"lat":"45.10555","lines":"3096","lng":"7.8886","location":"_","name":"Sciolze (reg. Malunga)","placeName":"_","id":"11027","type":"BUS"},{"lat":"45.02354","lines":"92,91,18,62,63 /,40,39,38,40N,43,4 navetta,1510,1511,Night Buster 4 azzurra","lng":"7.63619","location":"C.UNIONE SOVIETICA FRONTE V.NICHELINO","name":"CAIO MARIO","placeName":"Torino","id":"1103","type":"BUS"},{"lat":"45.10833","lines":"3096","lng":"7.88589","location":"_","name":"Sciolze (reg. Battaglina)","placeName":"_","id":"11030","type":"BUS"},{"lat":"45.11162","lines":"3096","lng":"7.88574","location":"_","name":"Rivalba (bivio)","placeName":"_","id":"11033","type":"BUS"},{"lat":"45.11887","lines":"3096","lng":"7.88859","location":"_","name":"Rivalba (Fontana)","placeName":"_","id":"11034","type":"BUS"},{"lat":"45.10941","lines":"3096","lng":"7.89579","location":"_","name":"Borgiona (bv. Monteriolo)","placeName":"_","id":"11036","type":"BUS"},{"lat":"45.11121","lines":"3096","lng":"7.901","location":"_","name":"Borgiona (Villa Cerro)","placeName":"_","id":"11039","type":"BUS"},{"lat":"45.04643","lines":"Night Buster 4 azzurra,92","lng":"7.66186","location":"C.UNIONE SOVIETICA / C.BRAMANTE","name":"DISTRETTO MILITARE","placeName":"Torino","id":"1104","type":"BUS"},{"lat":"45.11045","lines":"3096","lng":"7.90687","location":"_","name":"Borgiona (Cascina Frate)","placeName":"_","id":"11042","type":"BUS"},{"lat":"45.10888","lines":"3096","lng":"7.914","location":"_","name":"Borgiona (Cascina Borgiona)","placeName":"_","id":"11045","type":"BUS"},{"lat":"45.10762","lines":"3096","lng":"7.91878","location":"_","name":"San Rocco (Cascina Raccone)","placeName":"_","id":"11048","type":"BUS"},{"lat":"45.047","lines":"92,Night Buster 4 azzurra,4","lng":"7.66236","location":"C.TURATI / C.LEPANTO","name":"DISTRETTO MILITARE","placeName":"Torino","id":"1105","type":"BUS"},{"lat":"45.10695","lines":"3096","lng":"7.92545","location":"_","name":"Cinzano (Pilone)","placeName":"_","id":"11051","type":"BUS"},{"lat":"45.1032","lines":"3096","lng":"7.9266","location":"_","name":"Cinzano (reg. Rossatti)","placeName":"_","id":"11054","type":"BUS"},{"lat":"45.1001","lines":"3096","lng":"7.91977","location":"_","name":"Cinzano (bv. Apra')","placeName":"_","id":"11057","type":"BUS"},{"lat":"45.04958","lines":"92,Night Buster 4 azzurra","lng":"7.6654","location":"C.TURATI / C.DANTE","name":"OSPEDALE MAURIZIANO","placeName":"Torino","id":"1106","type":"BUS"},{"lat":"45.09484","lines":"3096","lng":"7.92435","location":"_","name":"Cinzano","placeName":"_","id":"11060","type":"BUS"},{"lat":"45.12039","lines":"3096","lng":"7.88817","location":"_","name":"Rivalba","placeName":"_","id":"11063","type":"BUS"},{"lat":"45.13847","lines":"Night Buster 57 oro,SE2,49,25","lng":"7.77754","location":"V.G.FERRARIS PRIMA DI V. MARONCELLI SETTIMO TOR.","name":"MARONCELLI","placeName":"Settimo Torinese","id":"1107","type":"BUS"},{"lat":"45.37544","lines":"4108","lng":"7.90592","location":"_","name":"Crotte (Chiesa)","placeName":"_","id":"11072","type":"BUS"},{"lat":"45.37343","lines":"4108","lng":"7.91266","location":"_","name":"Crotte (v. Vische)","placeName":"_","id":"11075","type":"BUS"},{"lat":"45.36394","lines":"4108","lng":"7.92602","location":"_","name":"Vische (cascina Monessa)","placeName":"_","id":"11078","type":"BUS"},{"lat":"45.05154","lines":"Night Buster 4 azzurra,92","lng":"7.66761","location":"C.TURATI DOPO V.SAVONAROLA","name":"MAGELLANO","placeName":"Torino","id":"1108","type":"BUS"},{"lat":"45.36007","lines":"4108","lng":"7.93044","location":"_","name":"Vische (cascina Luisina)","placeName":"_","id":"11081","type":"BUS"},{"lat":"45.35079","lines":"4108","lng":"7.93349","location":"_","name":"Vische (cascina Mombello)","placeName":"_","id":"11084","type":"BUS"},{"lat":"45.34462","lines":"4108","lng":"7.93754","location":"_","name":"Vische (cascina Ova)","placeName":"_","id":"11087","type":"BUS"},{"lat":"45.14071","lines":"3106,3107,3321,49,3006,Night Buster 57 oro,SE2,25","lng":"7.77894","location":"V.G.FERRARIS PRIMA DI V.LEVI SETTIMO TOR.","name":"LEVI","placeName":"Settimo Torinese","id":"1109","type":"BUS"},{"lat":"45.33595","lines":"4108","lng":"7.94442","location":"_","name":"Vische (v. Amione/bv. Candia)","placeName":"_","id":"11090","type":"BUS"},{"lat":"45.33345","lines":"4108,3106","lng":"7.95062","location":"_","name":"Vische (P.za Amione)","placeName":"_","id":"11093","type":"BUS"},{"lat":"45.3257","lines":"3106,4108","lng":"7.94702","location":"_","name":"Vische (Circolo Ippico)","placeName":"_","id":"11096","type":"BUS"},{"lat":"45.31656","lines":"4108,3106","lng":"7.9347","location":"_","name":"Vische (bv. Barengo)","placeName":"_","id":"11099","type":"BUS"},{"lat":"45.08038","lines":"2,22,1085","lng":"7.64677","location":"C.LECCE N.33","name":"FABRIZI","placeName":"Torino","id":"111","type":"BUS"},{"lat":"45.05273","lines":"92,Night Buster 4 azzurra","lng":"7.66893","location":"C.TURATI / V.VESPUCCI","name":"VESPUCCI","placeName":"Torino","id":"1110","type":"BUS"},{"lat":"45.3058","lines":"3106,4108","lng":"7.93417","location":"_","name":"Mazze' (Croce Vallo-Cimitero)","placeName":"_","id":"11102","type":"BUS"},{"lat":"45.30357","lines":"4108,3106","lng":"7.93389","location":"_","name":"Mazze' (v. Cairelli/v. Vische)","placeName":"_","id":"11105","type":"BUS"},{"lat":"45.30025","lines":"3106,4108","lng":"7.93184","location":"_","name":"Mazze' (v. Cairelli/v. Bergandi)","placeName":"_","id":"11108","type":"BUS"},{"lat":"45.10347","lines":"29","lng":"7.63608","location":"V. DELLE PERVINCHE DOPO V.LE DEI MUGHETTI","name":"PERVINCHE","placeName":"Torino","id":"1111","type":"BUS"},{"lat":"45.29967","lines":"3106,4108","lng":"7.93581","location":"_","name":"Mazze' (P.za Vitt. Veneto)","placeName":"_","id":"11111","type":"BUS"},{"lat":"45.29421","lines":"4108,3106","lng":"7.93745","location":"_","name":"Tonengo (distr. Tamoil)","placeName":"_","id":"11114","type":"BUS"},{"lat":"45.29001","lines":"3106,4108","lng":"7.93897","location":"_","name":"Tonengo (Consorzio)","placeName":"_","id":"11117","type":"BUS"},{"lat":"45.0557","lines":"4,Night Buster 4 azzurra,92","lng":"7.67225","location":"V.SACCHI DOPO C.SOMMEILLER","name":"SOMMEILLER","placeName":"Torino","id":"1112","type":"BUS"},{"lat":"45.28772","lines":"4108,3106","lng":"7.9381","location":"_","name":"Tonengo (P.za Ugolino)","placeName":"_","id":"11120","type":"BUS"},{"lat":"45.28358","lines":"3106,4108","lng":"7.93599","location":"_","name":"Tonengo (P.za Pertini)","placeName":"_","id":"11123","type":"BUS"},{"lat":"45.2799","lines":"4108,3106","lng":"7.93448","location":"_","name":"Tonengo (v. Garibaldi 228)","placeName":"_","id":"11126","type":"BUS"},{"lat":"45.27399","lines":"3106,4108","lng":"7.93331","location":"_","name":"Tonengo (v. Garibaldi 273)","placeName":"_","id":"11129","type":"BUS"},{"lat":"45.10596","lines":"29","lng":"7.63586","location":"V. DELLE PERVINCHE FR. N. 15","name":"PERVINCHE NORD","placeName":"Torino","id":"1113","type":"BUS"},{"lat":"45.26374","lines":"4108,3106","lng":"7.91706","location":"_","name":"Tonengo (cascina Savonera)","placeName":"_","id":"11132","type":"BUS"},{"lat":"45.25729","lines":"3106,4108","lng":"7.91708","location":"_","name":"Tonengo (cascina Carolina)","placeName":"_","id":"11135","type":"BUS"},{"lat":"45.25361","lines":"4108,3106","lng":"7.91733","location":"_","name":"Tonengo (cascina Giletta)","placeName":"_","id":"11138","type":"BUS"},{"lat":"45.05833","lines":"92,4,Night Buster 4 azzurra","lng":"7.67431","location":"V.SACCHI FRONTE V.PASTRENGO","name":"PASTRENGO","placeName":"Torino","id":"1114","type":"BUS"},{"lat":"45.24922","lines":"3106,4108","lng":"7.9172","location":"_","name":"Boschetto (Edilias)","placeName":"_","id":"11141","type":"BUS"},{"lat":"45.24253","lines":"4108,3106","lng":"7.91722","location":"_","name":"Boschetto (bv. Mandria)","placeName":"_","id":"11144","type":"BUS"},{"lat":"45.23919","lines":"3106,4108","lng":"7.91608","location":"_","name":"Boschetto (Bivio)","placeName":"_","id":"11147","type":"BUS"},{"lat":"45.10596","lines":"29","lng":"7.6251","location":"V. DELLE PERVINCHE N.75","name":"PRIMULE NORD","placeName":"Torino","id":"1115","type":"BUS"},{"lat":"45.23919","lines":"4108,3106","lng":"7.91324","location":"_","name":"Boschetto (v. Campagna 11)","placeName":"_","id":"11150","type":"BUS"},{"lat":"45.23694","lines":"3106,4108","lng":"7.9049","location":"_","name":"Boschetto (P.za S.Giovanni)","placeName":"_","id":"11153","type":"BUS"},{"lat":"45.23393","lines":"4108,3106","lng":"7.90572","location":"_","name":"Boschetto (v. S.Francesco/v. Cene)","placeName":"_","id":"11156","type":"BUS"},{"lat":"45.2255","lines":"3106,4108","lng":"7.91385","location":"_","name":"Boschetto (v. S.Francesco/v. Provinc)","placeName":"_","id":"11159","type":"BUS"},{"lat":"44.991","lines":"35 navetta,S18B,Night Buster 18 blu","lng":"7.64226","location":"V.TORINO N.209 NICHELINO","name":"NICHELINO STAZIONE","placeName":"Nichelino","id":"1116","type":"BUS"},{"lat":"45.21233","lines":"4108,3106","lng":"7.90891","location":"_","name":"Betlemme (v. Borghetto)","placeName":"_","id":"11165","type":"BUS"},{"lat":"45.19638","lines":"3106,4108","lng":"7.89767","location":"_","name":"Chivasso (Cappuccini/Scuole)","placeName":"_","id":"11168","type":"BUS"},{"lat":"45.00177","lines":"14,96","lng":"7.64533","location":"V.XXV APRILE DOPO V.PONCHIELLI  NICHELINO","name":"PONCHIELLI","placeName":"Nichelino","id":"1117","type":"BUS"},{"lat":"45.19146","lines":"4108,3429,3321,3901,3316,3121,3107,3106,3006","lng":"7.89179","location":"_","name":"Chivasso (P.za del Popolo)","placeName":"_","id":"11171","type":"BUS"},{"lat":"45.07335","lines":"Night Buster 15 rosa,51","lng":"7.66751","location":"CORSO BOLZANO","name":"BOLZANO CAPOLINEA","placeName":"Torino","id":"1118","type":"BUS"},{"lat":"45.02421","lines":"39","lng":"7.63621","location":"PIAZZALE CAIO MARIO","name":"CAIO MARIO CAPOLINEA","placeName":"Torino","id":"1119","type":"BUS"},{"lat":"45.28334","lines":"4108","lng":"7.94738","location":"_","name":"Casale di Mazze' (v. Rondissone)","placeName":"_","id":"11192","type":"BUS"},{"lat":"45.28909","lines":"4108","lng":"7.94129","location":"_","name":"Tonengo (v. Cimitero)","placeName":"_","id":"11195","type":"BUS"},{"lat":"45.08021","lines":"1085,2,22","lng":"7.64679","location":"C.LECCE N.58","name":"FABRIZI","placeName":"Torino","id":"112","type":"BUS"},{"lat":"45.06808","lines":"42","lng":"7.62755","location":"V.MARSIGLI / V.M.ORTIGARA","name":"MARTINI CAPOLINEA","placeName":"Torino","id":"1120","type":"BUS"},{"lat":"45.06514","lines":"64,Night Buster 15 rosa","lng":"7.60958","location":"STR DELLA PRONDA / V.RIETI GRUGLIASCO","name":"RIETI","placeName":"Torino","id":"1121","type":"BUS"},{"lat":"45.0693","lines":"42","lng":"7.62415","location":"V.M.ORTIGARA / C.BRUNELLESCHI","name":"CHAMBERY","placeName":"Torino","id":"1122","type":"BUS"},{"lat":"45.21574","lines":"4108,3106,3316","lng":"7.97504","location":"_","name":"Torrazza Piemonte (P.za Peso)","placeName":"_","id":"11222","type":"BUS"},{"lat":"45.24369","lines":"4108","lng":"7.96959","location":"_","name":"Rondissone (bv. Cigliano)","placeName":"_","id":"11225","type":"BUS"},{"lat":"45.30028","lines":"4108","lng":"7.93098","location":"_","name":"Mazze' (v. Caluso/v. Cairelli)","placeName":"_","id":"11228","type":"BUS"},{"lat":"45.06968","lines":"42","lng":"7.62313","location":"C.BRUNELLESCHI / V.CHAMBERY","name":"CHAMBERY","placeName":"Torino","id":"1123","type":"BUS"},{"lat":"45.24701","lines":"4108","lng":"7.96532","location":"_","name":"Rondissone (P.za Roma)","placeName":"_","id":"11231","type":"BUS"},{"lat":"45.45574","lines":"4155,4157,4152,4512,5319,5145,5143,4541,4513","lng":"7.86622","location":"_","name":"Ivrea (v. Jervis/Nuovi Uffici Olivetti)","placeName":"_","id":"11234","type":"BUS"},{"lat":"45.46145","lines":"5143,5145,4541,4512,4513,4154,4157,4151,4168,4156,4155,4153,4108,4152,3133","lng":"7.87576","location":"_","name":"Ivrea (stazione ferroviaria)","placeName":"_","id":"11237","type":"BUS"},{"lat":"45.45934","lines":"3133,5143,5145,4512,4513,4151,4108,4152,4156","lng":"7.88429","location":"_","name":"Ivrea (v. Levi/v. Pavese)","placeName":"_","id":"11238","type":"BUS"},{"lat":"45.46089","lines":"4512,4151,4108,4168,4152,4156,3133,5143,5145,4513","lng":"7.88008","location":"_","name":"Ivrea (v. Ginzburg)","placeName":"_","id":"11239","type":"BUS"},{"lat":"45.08467","lines":"29","lng":"7.65038","location":"C. APPIO CLAUDIO DOPO C. LECCE","name":"LECCE","placeName":"Torino","id":"1124","type":"BUS"},{"lat":"45.45048","lines":"4154","lng":"7.87873","location":"_","name":"Ivrea (v. Torino/v. Bellini)","placeName":"_","id":"11240","type":"BUS"},{"lat":"45.46106","lines":"4108,4151,4168,4512,4152,4156,5143,5145,4513,3133","lng":"7.87781","location":"_","name":"Ivrea (Movicentro)","placeName":"_","id":"11242","type":"BUS"},{"lat":"45.44245","lines":"3133,4108,4154,4156,5143","lng":"7.87786","location":"_","name":"Ivrea (v. Torino/Canton Carasso)","placeName":"_","id":"11243","type":"BUS"},{"lat":"45.4576","lines":"4512,5143,5145,4513,3133,4108,4152,4151,4156","lng":"7.883","location":"_","name":"Ivrea (v. Levi/v. Fenoglio)","placeName":"_","id":"11244","type":"BUS"},{"lat":"45.42675","lines":"4108,4154,4156,5143,3133","lng":"7.88266","location":"_","name":"Ivrea (v. Torino/Canton Gianotti)","placeName":"_","id":"11246","type":"BUS"},{"lat":"45.08393","lines":"29","lng":"7.65304","location":"C. APPIO CLAUDIO DOPO C. SVIZZERA","name":"SACRARIO DEL MARTINETTO","placeName":"Torino","id":"1125","type":"BUS"},{"lat":"45.0842","lines":"32,29","lng":"7.65326","location":"C. APPIO CLAUDIO / C. SVIZZERA","name":"SACRARIO DEL MARTINETTO","placeName":"Torino","id":"1126","type":"BUS"},{"lat":"45.37739","lines":"4108","lng":"7.90138","location":"_","name":"Crotte (v. S.Carlo 61)","placeName":"_","id":"11264","type":"BUS"},{"lat":"45.24939","lines":"4108","lng":"7.96379","location":"_","name":"Rondissone (P.za Dante)","placeName":"_","id":"11267","type":"BUS"},{"lat":"45.10337","lines":"29","lng":"7.63554","location":"V. DELLE PERVINCHE / V.LE DEI MUGHETTI","name":"PERVINCHE","placeName":"Torino","id":"1127","type":"BUS"},{"lat":"45.03079","lines":"14,63","lng":"7.65181","location":"C.CORSICA / C. GIAMBONE","name":"GIAMBONE","placeName":"Torino","id":"1128","type":"BUS"},{"lat":"45.11184","lines":"9B","lng":"7.63902","location":"STADIO CAP.9B","name":"STADIO CAP.","placeName":"Venaria Reale","id":"1129","type":"BUS"},{"lat":"45.05141","lines":"66,42","lng":"7.66249","location":"C.ROSSELLI N. 33","name":"RE UMBERTO","placeName":"Torino","id":"1130","type":"BUS"},{"lat":"44.99719","lines":"2075,1085,1117,1510,1514,2 Rivalta","lng":"7.50703","location":"_","name":"Rivalta (FIAT Rivalta-canc. 8)","placeName":"_","id":"11303","type":"BUS"},{"lat":"44.99799","lines":"2 Rivalta,1510,1085,1514,1117,2075","lng":"7.51045","location":"_","name":"Rivalta (FIAT Rivalta-canc. 5)","placeName":"_","id":"11306","type":"BUS"},{"lat":"45.05056","lines":"42","lng":"7.66509","location":"C.ROSSELLI DOPO C. TURATI","name":"MAURIZIANO","placeName":"Torino","id":"1131","type":"BUS"},{"lat":"45.05049","lines":"42","lng":"7.66473","location":"C.ROSSELLI / C.TURATI","name":"MAURIZIANO","placeName":"Torino","id":"1132","type":"BUS"},{"lat":"45.04915","lines":"42","lng":"7.66723","location":"C.DANTE / V.ROCCABRUNA","name":"TURATI","placeName":"Torino","id":"1133","type":"BUS"},{"lat":"45.46816","lines":"3133,4151,4154,4153,4108,4168,4512,4157,5143,5145","lng":"7.88565","location":"_","name":"Ivrea (C.so Vercelli/S.Lorenzo APT)","placeName":"_","id":"11330","type":"BUS"},{"lat":"45.46904","lines":"4541,4155,4156,4153","lng":"7.88637","location":"_","name":"Ivrea (v. Cascinette/S.Lorenzo APT)","placeName":"_","id":"11331","type":"BUS"},{"lat":"45.38345","lines":"4156","lng":"7.86046","location":"_","name":"Scarmagno (Stabilimenti)","placeName":"_","id":"11333","type":"BUS"},{"lat":"45.30234","lines":"4108","lng":"7.89228","location":"_","name":"Caluso (v. Martiri d'Italia 45)","placeName":"_","id":"11336","type":"BUS"},{"lat":"45.30209","lines":"4108","lng":"7.89738","location":"_","name":"Caluso (Compuprint)","placeName":"_","id":"11339","type":"BUS"},{"lat":"45.04931","lines":"42","lng":"7.6671","location":"C.DANTE FRONTE V.SOLERO","name":"TURATI","placeName":"Torino","id":"1134","type":"BUS"},{"lat":"45.30561","lines":"4108","lng":"7.8887","location":"_","name":"Caluso (P.za Mazzini)","placeName":"_","id":"11342","type":"BUS"},{"lat":"45.525","lines":"4156,4157","lng":"7.85238","location":"_","name":"San Germano (P.za Pertini)","placeName":"_","id":"11345","type":"BUS"},{"lat":"45.52095","lines":"4156,4157","lng":"7.85305","location":"_","name":"San Germano (reg. Rossetto)","placeName":"_","id":"11348","type":"BUS"},{"lat":"45.04754","lines":"42","lng":"7.67228","location":"C.DANTE / P DE AMICIS","name":"NIZZA","placeName":"Torino","id":"1135","type":"BUS"},{"lat":"45.51866","lines":"4157,4156","lng":"7.85385","location":"_","name":"Borgofranco (v. Aosta/reg. Bredda)","placeName":"_","id":"11351","type":"BUS"},{"lat":"45.5152","lines":"4157,4156","lng":"7.85514","location":"_","name":"Borgofranco (stazione ferroviaria)","placeName":"_","id":"11354","type":"BUS"},{"lat":"45.51148","lines":"4156,4157","lng":"7.85634","location":"_","name":"Borgofranco (v. Torino/ P.za Germanetti)","placeName":"_","id":"11357","type":"BUS"},{"lat":"45.04763","lines":"42","lng":"7.67241","location":"C.DANTE DOPO V.NIZZA","name":"NIZZA","placeName":"Torino","id":"1136","type":"BUS"},{"lat":"45.5088","lines":"4157","lng":"7.85657","location":"_","name":"Borgofranco (ss. 26/v. Monte Rosa)","placeName":"_","id":"11360","type":"BUS"},{"lat":"45.49551","lines":"4157","lng":"7.85924","location":"_","name":"Montalto Dora (v. Aosta/loc. Ponte)","placeName":"_","id":"11363","type":"BUS"},{"lat":"45.49187","lines":"4156,4157","lng":"7.86104","location":"_","name":"Montalto Dora (p.le Chiesa)","placeName":"_","id":"11366","type":"BUS"},{"lat":"45.48915","lines":"4157","lng":"7.86258","location":"_","name":"Montalto Dora (v. Ivrea/reg. Mulino)","placeName":"_","id":"11369","type":"BUS"},{"lat":"45.04703","lines":"42","lng":"7.67484","location":"C.DANTE / V.M.CRISTINA","name":"MADAMA CRISTINA","placeName":"Torino","id":"1137","type":"BUS"},{"lat":"45.48505","lines":"4157","lng":"7.86324","location":"_","name":"Montalto Dora (v. Ivrea/reg. Balme)","placeName":"_","id":"11372","type":"BUS"},{"lat":"45.48281","lines":"4157,4156","lng":"7.86358","location":"_","name":"Montalto Dora (v. Ivrea/Baltea)","placeName":"_","id":"11375","type":"BUS"},{"lat":"45.47977","lines":"4157","lng":"7.865","location":"_","name":"Ivrea (v. Aosta/reg. Gabella)","placeName":"_","id":"11378","type":"BUS"},{"lat":"45.4751","lines":"4157","lng":"7.86662","location":"_","name":"Ivrea (v. Aosta 83)","placeName":"_","id":"11381","type":"BUS"},{"lat":"45.47054","lines":"4157","lng":"7.86879","location":"_","name":"Ivrea (v. Aosta/S.Antonio)","placeName":"_","id":"11384","type":"BUS"},{"lat":"45.46779","lines":"4157,4156","lng":"7.87185","location":"_","name":"Ivrea (v. Aosta/porta Aosta)","placeName":"_","id":"11387","type":"BUS"},{"lat":"45.04651","lines":"42","lng":"7.67774","location":"C.DANTE / C.M.D'AZEGLIO","name":"D' AZEGLIO","placeName":"Torino","id":"1139","type":"BUS"},{"lat":"45.46273","lines":"4154,4151,4512,4156,4168,4157,4153,4155,4108,3133,5143,5145,4541","lng":"7.87413","location":"_","name":"Ivrea (C.so Nigra/p.ta Torino)","placeName":"_","id":"11393","type":"BUS"},{"lat":"45.45909","lines":"5143,5145,4541,4513,4512,4152,4153,4157,4155,4168,5319","lng":"7.87357","location":"_","name":"Ivrea (v. Jervis/v. Montenavale)","placeName":"_","id":"11399","type":"BUS"},{"lat":"45.07805","lines":"2,22","lng":"7.64529","location":"C.LECCE DOPO V. ROSOLINO PILO","name":"PILO","placeName":"Torino","id":"114","type":"BUS"},{"lat":"45.04676","lines":"42","lng":"7.67692","location":"C.DANTE DOPO C. MASSIMO D'AZEGLIO","name":"D' AZEGLIO","placeName":"Torino","id":"1140","type":"BUS"},{"lat":"45.45769","lines":"4512,4541,4513,4157,4156,4155,4153,4168","lng":"7.8701","location":"_","name":"Ivrea (v. Jervis/p.le Aurora)","placeName":"_","id":"11402","type":"BUS"},{"lat":"45.45362","lines":"4153","lng":"7.8612","location":"_","name":"Banchette (bv. Pavone)","placeName":"_","id":"11405","type":"BUS"},{"lat":"45.4525","lines":"4168,4155,4541","lng":"7.85776","location":"_","name":"Banchette (v. Castellamonte 25)","placeName":"_","id":"11408","type":"BUS"},{"lat":"45.06349","lines":"54,78","lng":"7.75599","location":"STR.ALTA DI MONGRENO FRONTE N.16","name":"ALTA DI MONGRENO N.16","placeName":"Torino","id":"1141","type":"BUS"},{"lat":"45.45238","lines":"5143,4513,4512,5145,4541,4155,4152,5319","lng":"7.85543","location":"_","name":"Banchette (v. Castellamonte/v. Torretta)","placeName":"_","id":"11411","type":"BUS"},{"lat":"45.45033","lines":"5319,4155,4152,4512,5143,5145,4541,4513","lng":"7.84804","location":"_","name":"Samone (Centro)","placeName":"_","id":"11414","type":"BUS"},{"lat":"45.44881","lines":"4512,5145,5143,4541,4513,4155,4152,5319","lng":"7.8429","location":"_","name":"Samone (v. Provinciale-Ribes)","placeName":"_","id":"11417","type":"BUS"},{"lat":"45.01503","lines":"34,38","lng":"7.63221","location":"VIA FARINELLI FRONTE VIA TOGLIATTI","name":"MORANDI","placeName":"Torino","id":"1142","type":"BUS"},{"lat":"45.44784","lines":"5319,4152,4155,4512,5143,4541,4513,5145","lng":"7.83974","location":"_","name":"Samone (Capolinea)","placeName":"_","id":"11420","type":"BUS"},{"lat":"45.46548","lines":"4541,5143,5145,4512,4156,4154,4151,4153,4168,4155,4108,4157,3133","lng":"7.87494","location":"_","name":"Ivrea (C.so Re Umberto/l.go Dora I)","placeName":"_","id":"11423","type":"BUS"},{"lat":"45.46538","lines":"4153,4154,4168,4155,4157,4541","lng":"7.87867","location":"_","name":"Ivrea (C.so Re Umberto/l.go Dora II)","placeName":"_","id":"11426","type":"BUS"},{"lat":"45.01487","lines":"38,34","lng":"7.63233","location":"VIA FARINELLI FRONTE VIA TOGLIATTI","name":"MORANDI","placeName":"Torino","id":"1143","type":"BUS"},{"lat":"45.08017","lines":"13,13N","lng":"7.65643","location":"CORSO TASSONI - VIA PEYRON","name":"FABRIZI","placeName":"Torino","id":"1144","type":"BUS"},{"lat":"45.45712","lines":"4154,4168","lng":"7.87904","location":"_","name":"Ivrea (v. Torino/Ponte XXV aprile)","placeName":"_","id":"11441","type":"BUS"},{"lat":"45.45482","lines":"4154,4108,4156,4168,5143,3133","lng":"7.87928","location":"_","name":"Ivrea (v. Torino/Canton Vigna)","placeName":"_","id":"11444","type":"BUS"},{"lat":"45.45168","lines":"4154,4168","lng":"7.87848","location":"_","name":"Ivrea (v.le Liberazione)","placeName":"_","id":"11447","type":"BUS"},{"lat":"45.02818","lines":"48,1 Orbassano","lng":"7.55916","location":"P.LE OSPEDALE SAN LUIGI  ORBASSANO","name":"OSPEDALE SAN LUIGI CAPOLINEA","placeName":"Orbassano","id":"1145","type":"BUS"},{"lat":"45.44994","lines":"4168,4154","lng":"7.87685","location":"_","name":"Bellavista (v. Don Minzoni)","placeName":"_","id":"11450","type":"BUS"},{"lat":"45.44717","lines":"4168,4154","lng":"7.87431","location":"_","name":"Bellavista (ITI)","placeName":"_","id":"11453","type":"BUS"},{"lat":"45.45927","lines":"4153,4512","lng":"7.85091","location":"_","name":"Salerano (Capolinea)","placeName":"_","id":"11456","type":"BUS"},{"lat":"45.4595","lines":"4512,4153","lng":"7.85523","location":"_","name":"Salerano (v. Testa)","placeName":"_","id":"11459","type":"BUS"},{"lat":"45.10369","lines":"72","lng":"7.65094","location":"C.CINCINNATO FRONTE N.222","name":"LUINI","placeName":"Torino","id":"1146","type":"BUS"},{"lat":"45.4571","lines":"4153,4512,4168,4156","lng":"7.85852","location":"_","name":"Banchette (v. Samone)","placeName":"_","id":"11462","type":"BUS"},{"lat":"45.45958","lines":"4512,4153,4156,4168","lng":"7.86147","location":"_","name":"Banchette (v. Roma)","placeName":"_","id":"11465","type":"BUS"},{"lat":"45.45646","lines":"4153,4512,4168,4156","lng":"7.86691","location":"_","name":"Ivrea (v. Pinchia)","placeName":"_","id":"11466","type":"BUS"},{"lat":"45.47081","lines":"4155,4156","lng":"7.8891","location":"_","name":"Ivrea (v. Cascinette/v. Ruffini)","placeName":"_","id":"11468","type":"BUS"},{"lat":"45.07309","lines":"36 navetta","lng":"7.54005","location":"V.BRUERE N.9 RIVOLI","name":"SANGONE","placeName":"Rivoli","id":"1147","type":"BUS"},{"lat":"45.47132","lines":"4155,4156","lng":"7.89266","location":"_","name":"Ivrea (v. Cascinette/v. Strusiglia)","placeName":"_","id":"11471","type":"BUS"},{"lat":"45.47336","lines":"4156,4155","lng":"7.89503","location":"_","name":"Ivrea (v. Cascinette/Boschereggio)","placeName":"_","id":"11474","type":"BUS"},{"lat":"45.4759","lines":"4155,4156","lng":"7.89969","location":"_","name":"Cascinette (Campo Sportivo)","placeName":"_","id":"11477","type":"BUS"},{"lat":"45.07801","lines":"36 navetta","lng":"7.54243","location":"V.BRUERE N.92 RIVOLI","name":"BRUERE N.92","placeName":"Rivoli","id":"1148","type":"BUS"},{"lat":"45.47649","lines":"4155,4156","lng":"7.90226","location":"_","name":"Cascinette (v. Don Farinetti)","placeName":"_","id":"11480","type":"BUS"},{"lat":"45.47831","lines":"4155,4156","lng":"7.90523","location":"_","name":"Cascinette (Municipio)","placeName":"_","id":"11483","type":"BUS"},{"lat":"45.4808","lines":"4155,4156","lng":"7.90646","location":"_","name":"Cascinette (p.le Chiesa)","placeName":"_","id":"11486","type":"BUS"},{"lat":"45.4792","lines":"4155,4970","lng":"7.90718","location":"_","name":"Cascinette (v. Roma)","placeName":"_","id":"11489","type":"BUS"},{"lat":"45.08689","lines":"36 navetta","lng":"7.54941","location":"V.BRUERE N.302  RIVOLI","name":"BRUERE N.302","placeName":"Rivoli","id":"1149","type":"BUS"},{"lat":"45.479","lines":"4970,4155","lng":"7.91297","location":"_","name":"Cascinette (cascine Crotta)","placeName":"_","id":"11492","type":"BUS"},{"lat":"45.47886","lines":"4155","lng":"7.91966","location":"_","name":"Burolo (v. Candossino)","placeName":"_","id":"11495","type":"BUS"},{"lat":"45.47433","lines":"4155","lng":"7.92335","location":"_","name":"Burolo (v. Breda/v. Candossino)","placeName":"_","id":"11498","type":"BUS"},{"lat":"45.07796","lines":"2,22","lng":"7.64497","location":"C.LECCE / V. ROSOLINO PILO","name":"PILO","placeName":"Torino","id":"115","type":"BUS"},{"lat":"45.01936","lines":"34,38","lng":"7.59503","location":"STR DEL DROSSO FRONTE N.31","name":"DROSSO OVEST","placeName":"Beinasco","id":"1150","type":"BUS"},{"lat":"45.4734","lines":"4155","lng":"7.92858","location":"_","name":"Burolo (loc. Germanina)","placeName":"_","id":"11501","type":"BUS"},{"lat":"45.47317","lines":"4155","lng":"7.93142","location":"_","name":"Burolo (cond. Eolo)","placeName":"_","id":"11504","type":"BUS"},{"lat":"45.4771","lines":"4155,4154","lng":"7.93448","location":"_","name":"Burolo (Cimitero)","placeName":"_","id":"11507","type":"BUS"},{"lat":"45.0193","lines":"38,34","lng":"7.59623","location":"STR DEL DROSSO N.31 BEINASCO","name":"DROSSO OVEST","placeName":"Beinasco","id":"1151","type":"BUS"},{"lat":"45.48165","lines":"4154,4155","lng":"7.93366","location":"_","name":"Burolo (P.za Olivetti/Capolinea)","placeName":"_","id":"11510","type":"BUS"},{"lat":"45.46729","lines":"4154,4151,4156,4168,4108,4155,4512,4153,4157,3133,5145,4541,5143","lng":"7.88126","location":"_","name":"Ivrea (C.so M. d'Azeglio/P.za Freguglia)","placeName":"_","id":"11513","type":"BUS"},{"lat":"45.01781","lines":"63 /,34,95 /,38","lng":"7.6045","location":"STR. DEL DROSSO N.184","name":"ANSELMETTI","placeName":"Torino","id":"1152","type":"BUS"},{"lat":"45.48441","lines":"4155,4156,4970","lng":"7.9063","location":"_","name":"Cascinette (rio Gorrere)","placeName":"_","id":"11528","type":"BUS"},{"lat":"45.01784","lines":"34,38,63,95 /","lng":"7.60614","location":"STR DEL DROSSO INT.184","name":"ANSELMETTI","placeName":"Torino","id":"1153","type":"BUS"},{"lat":"45.48542","lines":"4156,4155,4970","lng":"7.9039","location":"_","name":"Cascinette (lago di Campagna)","placeName":"_","id":"11531","type":"BUS"},{"lat":"45.49032","lines":"4970,4156,4155","lng":"7.90069","location":"_","name":"Chiaverano (Cimitero)","placeName":"_","id":"11534","type":"BUS"},{"lat":"45.49245","lines":"4156,4155,4970","lng":"7.90228","location":"_","name":"Chiaverano (loc. Mulinas)","placeName":"_","id":"11537","type":"BUS"},{"lat":"45.01702","lines":"38,95 /,34,63 /","lng":"7.6101","location":"V.NEGARVILLE N.37","name":"DROSSO","placeName":"Torino","id":"1154","type":"BUS"},{"lat":"45.49723","lines":"4155,4156,4970","lng":"7.90413","location":"_","name":"Chiaverano (C.so Centrale)","placeName":"_","id":"11540","type":"BUS"},{"lat":"45.49906","lines":"4970,4155,4156","lng":"7.90294","location":"_","name":"Chiaverano (P.za Ombre/Capolinea)","placeName":"_","id":"11547","type":"BUS"},{"lat":"45.01702","lines":"95 /,63,38,34","lng":"7.60976","location":"V.NEGARVILLE / STR DEL DROSSO","name":"DROSSO","placeName":"Torino","id":"1155","type":"BUS"},{"lat":"45.45529","lines":"4153,4156","lng":"7.86037","location":"_","name":"Banchette (v. Circonvallazione 5)","placeName":"_","id":"11550","type":"BUS"},{"lat":"45.42981","lines":"4154","lng":"7.88209","location":"_","name":"Ivrea (v. Torino/Canton Bevolo)","placeName":"_","id":"11562","type":"BUS"},{"lat":"45.43278","lines":"4154","lng":"7.88091","location":"_","name":"San Bernardo (v. Torino/Canton Arbore)","placeName":"_","id":"11565","type":"BUS"},{"lat":"45.4353","lines":"4108,4154,4156,5143,3133","lng":"7.88001","location":"_","name":"Ivrea (v. Torino/Canton Mussano)","placeName":"_","id":"11568","type":"BUS"},{"lat":"45.01896","lines":"34,63,95 /,38","lng":"7.61133","location":"V.NEGARVILLE N. 23","name":"ROVEDA","placeName":"Torino","id":"1157","type":"BUS"},{"lat":"45.4382","lines":"4154","lng":"7.87904","location":"_","name":"San Bernardo (v. Torino/Canton Garda)","placeName":"_","id":"11571","type":"BUS"},{"lat":"45.44544","lines":"4154","lng":"7.87808","location":"_","name":"Ivrea (v. Torino/Canton Ferrero)","placeName":"_","id":"11574","type":"BUS"},{"lat":"45.44892","lines":"4108,4154,4156,3133,5143","lng":"7.87846","location":"_","name":"Ivrea (v. Torino/Canton Maridon)","placeName":"_","id":"11577","type":"BUS"},{"lat":"45.0207","lines":"63","lng":"7.61234","location":"V.NEGARVILLE N.8","name":"NEGARVILLE CAP.","placeName":"Torino","id":"1158","type":"BUS"},{"lat":"45.46828","lines":"4154,4168,4157","lng":"7.8889","location":"_","name":"Ivrea (C.so Vercelli 120)","placeName":"_","id":"11580","type":"BUS"},{"lat":"45.4683","lines":"4154,4512,4151,4168,4157,4108,5145,5143,3133","lng":"7.8927","location":"_","name":"Ivrea (C.so Vercelli/v. Strusiglia)","placeName":"_","id":"11583","type":"BUS"},{"lat":"45.46734","lines":"4151,4168,4157,4154","lng":"7.89859","location":"_","name":"Ivrea (v. Casale 2)","placeName":"_","id":"11586","type":"BUS"},{"lat":"45.46567","lines":"4157,4154,4168","lng":"7.90078","location":"_","name":"Ivrea (v. Casale/v. Biella)","placeName":"_","id":"11589","type":"BUS"},{"lat":"45.02029","lines":"71,38,34,96,95 /,97,98,90,94,99","lng":"7.61505","location":"V.PLAVA N.113","name":"NEGARVILLE EST","placeName":"Torino","id":"1159","type":"BUS"},{"lat":"45.46284","lines":"4151,4154","lng":"7.9035","location":"_","name":"Ivrea (v. Casale/ponte Breda)","placeName":"_","id":"11592","type":"BUS"},{"lat":"45.45804","lines":"4154","lng":"7.9073","location":"_","name":"Ivrea (v. Cigliano/casc. Bagnod)","placeName":"_","id":"11595","type":"BUS"},{"lat":"45.45219","lines":"4154","lng":"7.91204","location":"_","name":"Ivrea (v. Cigliano/casc. Rossa)","placeName":"_","id":"11598","type":"BUS"},{"lat":"45.07496","lines":"1085,22,2","lng":"7.64267","location":"C.TRAPANI DOPO PIAZZA RIVOLI","name":"RIVOLI SUD","placeName":"Torino","id":"116","type":"BUS"},{"lat":"45.0207","lines":"34,95 /,98,96,99,90,97,94,38,63 /,71","lng":"7.61493","location":"V.PLAVA FRONTE N. 119","name":"NEGARVILLE EST","placeName":"Torino","id":"1160","type":"BUS"},{"lat":"45.44904","lines":"4154,4151","lng":"7.91645","location":"_","name":"Torre Balfredo","placeName":"_","id":"11601","type":"BUS"},{"lat":"45.44579","lines":"4154","lng":"7.92036","location":"_","name":"Torre Balfredo (v. Cigliano/canton Buschetto)","placeName":"_","id":"11604","type":"BUS"},{"lat":"45.44221","lines":"4151,4154","lng":"7.92513","location":"_","name":"Albiano (bv. Tina)","placeName":"_","id":"11607","type":"BUS"},{"lat":"45.01924","lines":"71,63 /,38,90,95 /,96,98,99,94,34","lng":"7.61872","location":"V.PLAVA DOPO V.FACCIOLI","name":"FACCIOLI","placeName":"Torino","id":"1161","type":"BUS"},{"lat":"45.43935","lines":"4154","lng":"7.93202","location":"_","name":"Albiano (v. Cigliano/casc. Camadio)","placeName":"_","id":"11610","type":"BUS"},{"lat":"45.43574","lines":"4154,4151","lng":"7.94092","location":"_","name":"Albiano (borg. Prelle)","placeName":"_","id":"11613","type":"BUS"},{"lat":"45.46263","lines":"4168,4157","lng":"7.90692","location":"_","name":"Ivrea (Q. S.Giovanni-v.le Biella)","placeName":"_","id":"11617","type":"BUS"},{"lat":"45.44213","lines":"4156,4168,4154","lng":"7.8715","location":"_","name":"Bellavista (p.le I maggio)","placeName":"_","id":"11619","type":"BUS"},{"lat":"45.01889","lines":"34,38,71","lng":"7.61846","location":"V.PLAVA / V.FACCIOLI","name":"FACCIOLI","placeName":"Torino","id":"1162","type":"BUS"},{"lat":"45.44025","lines":"4168,4154","lng":"7.86965","location":"_","name":"Bellavista (v.le Papa Giovanni 88)","placeName":"_","id":"11622","type":"BUS"},{"lat":"45.43953","lines":"4154,4168","lng":"7.86618","location":"_","name":"Bellavista (v.le Papa Giovanni 148)","placeName":"_","id":"11625","type":"BUS"},{"lat":"45.44116","lines":"4154,4168","lng":"7.86524","location":"_","name":"Bellavista (v.le Kennedy 101)","placeName":"_","id":"11628","type":"BUS"},{"lat":"45.01717","lines":"71,38,34","lng":"7.62387","location":"V. PLAVA DOPO V. S. MICHELE DEL CARSO","name":"VALLARSA","placeName":"Torino","id":"1163","type":"BUS"},{"lat":"45.44288","lines":"4168,4154","lng":"7.86716","location":"_","name":"Bellavista (v.le Kennedy 73)","placeName":"_","id":"11631","type":"BUS"},{"lat":"45.4446","lines":"4154,4168","lng":"7.86932","location":"_","name":"Bellavista (v.le Kennedy 17)","placeName":"_","id":"11634","type":"BUS"},{"lat":"45.44517","lines":"4154,4168","lng":"7.87262","location":"_","name":"Bellavista (v.le Kennedy/Papa Giovanni)","placeName":"_","id":"11637","type":"BUS"},{"lat":"45.01766","lines":"34,38,71","lng":"7.62299","location":"V.PLAVA / V.VALLARSA","name":"VALLARSA","placeName":"Torino","id":"1164","type":"BUS"},{"lat":"45.46859","lines":"4154","lng":"7.89665","location":"_","name":"Ivrea (bv. San Giovanni)","placeName":"_","id":"11640","type":"BUS"},{"lat":"45.46914","lines":"4154","lng":"7.9005","location":"_","name":"Ivrea (C.so Vercelli/v. Crea)","placeName":"_","id":"11643","type":"BUS"},{"lat":"45.46931","lines":"4154","lng":"7.90413","location":"_","name":"Ivrea (C.so Vercelli/v. Piemonte)","placeName":"_","id":"11646","type":"BUS"},{"lat":"45.46962","lines":"4154","lng":"7.90763","location":"_","name":"Ivrea (C.so Vercelli/v. Parato)","placeName":"_","id":"11649","type":"BUS"},{"lat":"45.01571","lines":"71,38,34","lng":"7.62842","location":"V.FARINELLI DOPO C.UNIONE SOVIETICA","name":"UNIONE SOVIETICA","placeName":"Torino","id":"1165","type":"BUS"},{"lat":"45.47002","lines":"4154","lng":"7.9116","location":"_","name":"Ivrea (C.so Vercelli/Casa Circondariale)","placeName":"_","id":"11652","type":"BUS"},{"lat":"45.472","lines":"4154","lng":"7.92283","location":"_","name":"Burolo-Zona Industriale (loc. Forchino)","placeName":"_","id":"11655","type":"BUS"},{"lat":"45.47211","lines":"4154","lng":"7.92406","location":"_","name":"Burolo-Zona Industriale (cascine Bridola)","placeName":"_","id":"11658","type":"BUS"},{"lat":"45.01564","lines":"34,38","lng":"7.63043","location":"VIA FARINELLI FRONTE VIA COGGIOLA","name":"OSPEDALE VALLETTA","placeName":"Torino","id":"1166","type":"BUS"},{"lat":"45.472","lines":"4154,4970","lng":"7.93048","location":"_","name":"Burolo-Zona Industriale (v. IV Novembre)","placeName":"_","id":"11661","type":"BUS"},{"lat":"45.47059","lines":"4970,4154","lng":"7.93914","location":"_","name":"Bollengo (v. Roma/v. Nigra)","placeName":"_","id":"11664","type":"BUS"},{"lat":"45.46965","lines":"4154,4151,4970","lng":"7.94794","location":"_","name":"Bollengo (str. Statale 228/v. Castellazzo)","placeName":"_","id":"11667","type":"BUS"},{"lat":"45.06499","lines":"38 Speciale,17D,17,97,1117","lng":"7.57879","location":"V.LUPO / C.TORINO GRUGLIASCO","name":"TORINO","placeName":"Grugliasco","id":"1167","type":"BUS"},{"lat":"45.47081","lines":"4970,4154","lng":"7.94684","location":"_","name":"Bollengo (Centro)","placeName":"_","id":"11670","type":"BUS"},{"lat":"45.46896","lines":"4154","lng":"7.94832","location":"_","name":"Bollengo (str. prov. Caravino)","placeName":"_","id":"11671","type":"BUS"},{"lat":"45.44413","lines":"4154,4168,4156","lng":"7.87198","location":"_","name":"Bellavista (reg. Fossigalli)","placeName":"_","id":"11673","type":"BUS"},{"lat":"45.44901","lines":"4154","lng":"7.93732","location":"_","name":"Bollengo (fraz. Sant'Anna)","placeName":"_","id":"11679","type":"BUS"},{"lat":"45.06485","lines":"1117,17D,17,17 /,38 Speciale,97","lng":"7.57862","location":"V.LUPO / V.ECHIROLLES GRUGLIASCO","name":"TORINO","placeName":"Grugliasco","id":"1168","type":"BUS"},{"lat":"45.46946","lines":"4151,4154,4970","lng":"7.94258","location":"_","name":"Bollengo (S.S.228/v. Cavour)","placeName":"_","id":"11682","type":"BUS"},{"lat":"45.45544","lines":"4154","lng":"7.94548","location":"_","name":"Bollengo (cascina Gambone)","placeName":"_","id":"11688","type":"BUS"},{"lat":"45.01903","lines":"34,38","lng":"7.63358","location":"V.BARBERA N.18","name":"BARBERA OVEST","placeName":"Torino","id":"1169","type":"BUS"},{"lat":"45.45067","lines":"4154","lng":"7.94064","location":"_","name":"Bollengo (cascina Carlina)","placeName":"_","id":"11690","type":"BUS"},{"lat":"45.46348","lines":"4157,4168","lng":"7.90461","location":"_","name":"Ivrea (Q. S.Giovanni-Asilo)","placeName":"_","id":"11694","type":"BUS"},{"lat":"45.07489","lines":"1085,2,22","lng":"7.64312","location":"C.TRAPANI PRIMA DI P.ZA RIVOLI","name":"RIVOLI SUD","placeName":"Torino","id":"117","type":"BUS"},{"lat":"45.01923","lines":"34,38","lng":"7.63374","location":"V.BARBERA N.13","name":"BARBERA OVEST","placeName":"Torino","id":"1170","type":"BUS"},{"lat":"45.46229","lines":"4168,4157","lng":"7.90864","location":"_","name":"Ivrea (Q. S.Giovanni-P.za Boves)","placeName":"_","id":"11700","type":"BUS"},{"lat":"45.42047","lines":"4155,4156,4157","lng":"7.85943","location":"_","name":"Pavone (Ponte Chiusella)","placeName":"_","id":"11703","type":"BUS"},{"lat":"45.42538","lines":"4157,4155,4156","lng":"7.85893","location":"_","name":"Pavone (borg. Quilico)","placeName":"_","id":"11706","type":"BUS"},{"lat":"45.43954","lines":"4168,4157,4156","lng":"7.8505","location":"_","name":"Pavone (v. Circonvallazione/v. Nosetta)","placeName":"_","id":"11708","type":"BUS"},{"lat":"45.43126","lines":"4155,4157,4156","lng":"7.85563","location":"_","name":"Pavone (Circonvallazione/v. Marconi)","placeName":"_","id":"11709","type":"BUS"},{"lat":"45.018","lines":"38,34","lng":"7.63766","location":"V.BARBERA / STR DELLE CACCE","name":"BARBERA EST","placeName":"Torino","id":"1171","type":"BUS"},{"lat":"45.43399","lines":"4168","lng":"7.85447","location":"_","name":"Pavone (v.Marconi)","placeName":"_","id":"11713","type":"BUS"},{"lat":"45.43382","lines":"4157,4155,4168","lng":"7.85092","location":"_","name":"Pavone (v. Vignale)","placeName":"_","id":"11715","type":"BUS"},{"lat":"45.43566","lines":"4157,4155","lng":"7.85085","location":"_","name":"Pavone (v. Tripoli/v. Trieste)","placeName":"_","id":"11718","type":"BUS"},{"lat":"45.43543","lines":"4157","lng":"7.85234","location":"_","name":"Pavone (provvisoria)","placeName":"_","id":"11718x","type":"BUS"},{"lat":"45.01819","lines":"34,38","lng":"7.63783","location":"V.BARBERA DOPO STR DELLE CACCE","name":"BARBERA EST","placeName":"Torino","id":"1172","type":"BUS"},{"lat":"45.43738","lines":"4155,4157","lng":"7.85076","location":"_","name":"Pavone (v. Tripoli/v. Roma)","placeName":"_","id":"11721","type":"BUS"},{"lat":"45.44266","lines":"4157,4155,4168,4156","lng":"7.85344","location":"_","name":"Pavone (v. Circonvallazione 42)","placeName":"_","id":"11724","type":"BUS"},{"lat":"45.44347","lines":"4168,4157,4156,4155","lng":"7.85517","location":"_","name":"Pavone (v. Circonvallazione/Farmacia)","placeName":"_","id":"11727","type":"BUS"},{"lat":"45.01112","lines":"38,34,63","lng":"7.63614","location":"STR DELLE CACCE / STR.CASTELLO DI MIRAFIORI","name":"VERGA","placeName":"Torino","id":"1173","type":"BUS"},{"lat":"45.44676","lines":"4155,4157,4156,4168","lng":"7.85785","location":"_","name":"Pavone (v. Circonvallazione/distrib. ERG)","placeName":"_","id":"11730","type":"BUS"},{"lat":"45.45277","lines":"4157,4156,4155,4168,5145,5143","lng":"7.86228","location":"_","name":"Banchette (v. Pavone 2/caserma Carabinieri)","placeName":"_","id":"11733","type":"BUS"},{"lat":"45.46918","lines":"4153","lng":"7.88758","location":"_","name":"Ivrea (v. Chabod)","placeName":"_","id":"11736","type":"BUS"},{"lat":"45.47051","lines":"4153,4541","lng":"7.88777","location":"_","name":"Ivrea (v. Lago S.Michele/Don Burzio)","placeName":"_","id":"11739","type":"BUS"},{"lat":"45.01186","lines":"63,34,38","lng":"7.63675","location":"STR DELLE CACCE FRONTE V.VERGA","name":"VERGA","placeName":"Torino","id":"1174","type":"BUS"},{"lat":"45.47181","lines":"4541,4153","lng":"7.88945","location":"_","name":"Ivrea (v. Lago S.Michele/v. Favero)","placeName":"_","id":"11742","type":"BUS"},{"lat":"45.48518","lines":"4153","lng":"7.8882","location":"_","name":"Chiaverano (Prafagiolo)","placeName":"_","id":"11745","type":"BUS"},{"lat":"45.00998","lines":"38,34","lng":"7.64154","location":"STR.CASTELLO DI MIRAFIORI - IMP.SPORTIVI ROBALDO","name":"PARCO COLONNETTI","placeName":"Torino","id":"1175","type":"BUS"},{"lat":"45.49255","lines":"4153","lng":"7.8912","location":"_","name":"Chiaverano (Bacciana)","placeName":"_","id":"11750","type":"BUS"},{"lat":"45.48767","lines":"4153","lng":"7.88725","location":"_","name":"Chiaverano (Lago Sirio)","placeName":"_","id":"11751","type":"BUS"},{"lat":"45.51583","lines":"4156","lng":"7.8614","location":"_","name":"Borgofranco (v. Manzoni/v. Ruffini)","placeName":"_","id":"11757","type":"BUS"},{"lat":"45.01023","lines":"34,38","lng":"7.6405","location":"STR.CASTELLO DI MIRAFIORI - IMP.SPORTIVI ROBALDO","name":"PARCO COLONNETTI","placeName":"Torino","id":"1176","type":"BUS"},{"lat":"45.5147","lines":"4156","lng":"7.87021","location":"_","name":"Bio' (v. Andrate)","placeName":"_","id":"11760","type":"BUS"},{"lat":"45.51475","lines":"4156","lng":"7.87376","location":"_","name":"Bio'","placeName":"_","id":"11763","type":"BUS"},{"lat":"45.51652","lines":"4156","lng":"7.87533","location":"_","name":"Bio' (reg. Paratore)","placeName":"_","id":"11766","type":"BUS"},{"lat":"45.51967","lines":"4156","lng":"7.8669","location":"_","name":"Bio' (reg. Truc Cagnin)","placeName":"_","id":"11769","type":"BUS"},{"lat":"45.0116","lines":"38,34","lng":"7.65293","location":"V.MONASTIR N.80","name":"SAPRI","placeName":"Torino","id":"1177","type":"BUS"},{"lat":"45.44003","lines":"4541","lng":"7.82556","location":"_","name":"Colleretto (Bioparco)","placeName":"_","id":"11771","type":"BUS"},{"lat":"45.52232","lines":"4156","lng":"7.86449","location":"_","name":"Nomaglio (reg. Corsano)","placeName":"_","id":"11772","type":"BUS"},{"lat":"45.53578","lines":"4156","lng":"7.85978","location":"_","name":"Nomaglio","placeName":"_","id":"11775","type":"BUS"},{"lat":"45.53298","lines":"4156","lng":"7.86384","location":"_","name":"Nomaglio (v. Andrate 6)","placeName":"_","id":"11778","type":"BUS"},{"lat":"45.01425","lines":"1,38,34","lng":"7.65423","location":"V.MONASTIR N.35","name":"PISACANE","placeName":"Torino","id":"1178","type":"BUS"},{"lat":"45.52613","lines":"4156","lng":"7.87184","location":"_","name":"Andrate (reg. Serramonte)","placeName":"_","id":"11781","type":"BUS"},{"lat":"45.52765","lines":"4156","lng":"7.87278","location":"_","name":"Andrate (parco giochi Robinson)","placeName":"_","id":"11784","type":"BUS"},{"lat":"45.52763","lines":"4156","lng":"7.87805","location":"_","name":"Andrate (Capolinea)","placeName":"_","id":"11787","type":"BUS"},{"lat":"45.01388","lines":"34,38","lng":"7.65393","location":"V.MONASTIR / V. PISACANE","name":"PISACANE","placeName":"Torino","id":"1179","type":"BUS"},{"lat":"45.07207","lines":"2,22","lng":"7.64075","location":"C.TRAPANI DOPO V.BARDONECCHIA","name":"BARDONECCHIA","placeName":"Torino","id":"118","type":"BUS"},{"lat":"45.02796","lines":"90,97,98,95 /,94,96,71","lng":"7.61154","location":"V.LA MANTA CANC.23","name":"LA MANTA C.23","placeName":"Torino","id":"1180","type":"BUS"},{"lat":"45.01404","lines":"34,38","lng":"7.65772","location":"V.CANDIOLO / V.SOMALIA","name":"SOMALIA","placeName":"Moncalieri","id":"1181","type":"BUS"},{"lat":"45.0181","lines":"45","lng":"7.66282","location":"C. MARONCELLI N.23","name":"MARONCELLI CAPOLINEA","placeName":"Torino","id":"1182","type":"BUS"},{"lat":"45.42072","lines":"5137,5141,5143,5140","lng":"7.60537","location":"_","name":"Pont (Stazione)","placeName":"_","id":"11820","type":"BUS"},{"lat":"45.42056","lines":"5143,5140,5141,5137","lng":"7.59524","location":"_","name":"Pont (P.za Craveri)","placeName":"_","id":"11823","type":"BUS"},{"lat":"45.42019","lines":"5140,5141,5137,5143","lng":"7.59751","location":"_","name":"Pont (P.za Europa)","placeName":"_","id":"11826","type":"BUS"},{"lat":"45.4248","lines":"5141","lng":"7.59911","location":"_","name":"Pont (v. Frassinetto/v. Sant'Anna)","placeName":"_","id":"11829","type":"BUS"},{"lat":"45.11884","lines":"50,4 navetta,46 navetta,51,3131,3092","lng":"7.70973","location":"CORSO VERCELLI N.483","name":"VERCELLI N.483","placeName":"Torino","id":"1183","type":"BUS"},{"lat":"45.42327","lines":"5141","lng":"7.60809","location":"_","name":"Pont (S.Maria)","placeName":"_","id":"11832","type":"BUS"},{"lat":"45.42291","lines":"5141","lng":"7.61493","location":"_","name":"Faiallo (Truc Bertot)","placeName":"_","id":"11835","type":"BUS"},{"lat":"45.42509","lines":"5141","lng":"7.61325","location":"_","name":"Faiallo (Piaseretto)","placeName":"_","id":"11838","type":"BUS"},{"lat":"44.95781","lines":"35 navetta,Night Buster 18 blu","lng":"7.59382","location":"V.VERDI PRIMA DI VIA MASCAGNI CANDIOLO","name":"CANDIOLO CAPOLINEA","placeName":"Candiolo","id":"1184","type":"BUS"},{"lat":"45.42636","lines":"5141","lng":"7.60904","location":"_","name":"Faiallo (fraz.Campetti)","placeName":"_","id":"11841","type":"BUS"},{"lat":"45.42766","lines":"5141","lng":"7.60338","location":"_","name":"Faiallo (borg. Panier)","placeName":"_","id":"11843","type":"BUS"},{"lat":"45.42737","lines":"5141","lng":"7.61117","location":"_","name":"Faiallo (fraz.Martinetto)","placeName":"_","id":"11844","type":"BUS"},{"lat":"45.42396","lines":"5141","lng":"7.62602","location":"_","name":"Faiallo","placeName":"_","id":"11847","type":"BUS"},{"lat":"45.01772","lines":"34,4 navetta,38,41,39,96,Night Buster 4 azzurra","lng":"7.62929","location":"CORSO UNIONE SOVIETICA FRONTE VIA PAVESE","name":"PAVESE","placeName":"Torino","id":"1185","type":"BUS"},{"lat":"45.42892","lines":"5141","lng":"7.61603","location":"_","name":"Faiallo (fraz.Maiella)","placeName":"_","id":"11850","type":"BUS"},{"lat":"45.42936","lines":"5141","lng":"7.61897","location":"_","name":"Faiallo (fraz.Busta Sel)","placeName":"_","id":"11853","type":"BUS"},{"lat":"45.43096","lines":"5141","lng":"7.61862","location":"_","name":"Frassinetto (fraz.Casa Nuova)","placeName":"_","id":"11856","type":"BUS"},{"lat":"45.43224","lines":"5141","lng":"7.61941","location":"_","name":"Frassinetto (fraz.Cantelletto)","placeName":"_","id":"11859","type":"BUS"},{"lat":"45.11722","lines":"50,51","lng":"7.70441","location":"C.VERCELLI N. 415","name":"IVREA","placeName":"Torino","id":"1186","type":"BUS"},{"lat":"45.43378","lines":"5141","lng":"7.61317","location":"_","name":"Frassinetto (Fontana Rossa)","placeName":"_","id":"11862","type":"BUS"},{"lat":"45.43519","lines":"5141","lng":"7.60897","location":"_","name":"Frassinetto (Panissere)","placeName":"_","id":"11865","type":"BUS"},{"lat":"45.43467","lines":"5141","lng":"7.6066","location":"_","name":"Frassinetto (Cimitero)","placeName":"_","id":"11868","type":"BUS"},{"lat":"45.11705","lines":"51,50","lng":"7.70472","location":"C.VERCELLI / V. IVREA","name":"IVREA","placeName":"Torino","id":"1187","type":"BUS"},{"lat":"45.43595","lines":"5141","lng":"7.60596","location":"_","name":"Frassinetto","placeName":"_","id":"11871","type":"BUS"},{"lat":"45.43896","lines":"5141","lng":"7.60718","location":"_","name":"Frassinetto (bv. Chiappinetto)","placeName":"_","id":"11874","type":"BUS"},{"lat":"45.44614","lines":"5141","lng":"7.61248","location":"_","name":"Frassinetto (fraz. Tetti)","placeName":"_","id":"11877","type":"BUS"},{"lat":"45.11633","lines":"50,51","lng":"7.70125","location":"C.VERCELLI N. 397","name":"ANTIOCA","placeName":"Torino","id":"1188","type":"BUS"},{"lat":"45.44883","lines":"5141","lng":"7.60893","location":"_","name":"Frassinetto (fraz. Cereser)","placeName":"_","id":"11880","type":"BUS"},{"lat":"45.44991","lines":"5141","lng":"7.6038","location":"_","name":"Frassinetto (fraz. Balma)","placeName":"_","id":"11883","type":"BUS"},{"lat":"45.45068","lines":"5141","lng":"7.60234","location":"_","name":"Frassinetto (fraz. Galli)","placeName":"_","id":"11886","type":"BUS"},{"lat":"45.45156","lines":"5141","lng":"7.5969","location":"_","name":"Berchiotto","placeName":"_","id":"11889","type":"BUS"},{"lat":"45.11621","lines":"50,51","lng":"7.70176","location":"C.VERCELLI N. 354","name":"ANTIOCA","placeName":"Torino","id":"1189","type":"BUS"},{"lat":"45.42683","lines":"5140","lng":"7.59329","location":"_","name":"Pont (borg. Villanova)","placeName":"_","id":"11892","type":"BUS"},{"lat":"45.43407","lines":"5140","lng":"7.58597","location":"_","name":"Pont (Bausano inf.)","placeName":"_","id":"11895","type":"BUS"},{"lat":"45.43806","lines":"5140","lng":"7.58567","location":"_","name":"Pont (borg. Bausano)","placeName":"_","id":"11898","type":"BUS"},{"lat":"45.0722","lines":"2,22","lng":"7.64106","location":"C.TRAPANI DOPO V.BARDONECCHIA","name":"BARDONECCHIA","placeName":"Torino","id":"119","type":"BUS"},{"lat":"45.11072","lines":"50,51","lng":"7.69774","location":"C.VERCELLI N. 297","name":"BELGIOIOSO","placeName":"Torino","id":"1190","type":"BUS"},{"lat":"45.44194","lines":"5140","lng":"7.58487","location":"_","name":"Pont (Configlie')","placeName":"_","id":"11901","type":"BUS"},{"lat":"45.44849","lines":"5140","lng":"7.58312","location":"_","name":"Pont (Stroba)","placeName":"_","id":"11904","type":"BUS"},{"lat":"45.46124","lines":"5140","lng":"7.58157","location":"_","name":"Pont (Frailino)","placeName":"_","id":"11907","type":"BUS"},{"lat":"45.1114","lines":"51,50","lng":"7.69819","location":"C.VERCELLI PRIMA DI V. BELGIOIOSO","name":"BELGIOIOSO","placeName":"Torino","id":"1191","type":"BUS"},{"lat":"45.467","lines":"5140","lng":"7.57312","location":"_","name":"Ingria","placeName":"_","id":"11910","type":"BUS"},{"lat":"45.47229","lines":"5140","lng":"7.57231","location":"_","name":"Ingria (Viretto)","placeName":"_","id":"11913","type":"BUS"},{"lat":"45.47862","lines":"5140","lng":"7.55957","location":"_","name":"Ingria (Villanova)","placeName":"_","id":"11916","type":"BUS"},{"lat":"45.48276","lines":"5140","lng":"7.54948","location":"_","name":"Ronco (fraz. Lilla)","placeName":"_","id":"11919","type":"BUS"},{"lat":"45.10887","lines":"50,51","lng":"7.69724","location":"C.VERCELLI N. 279/A","name":"CENA","placeName":"Torino","id":"1192","type":"BUS"},{"lat":"45.4854","lines":"5140","lng":"7.54354","location":"_","name":"Ronco (bv. Boggiera)","placeName":"_","id":"11920","type":"BUS"},{"lat":"45.49016","lines":"5140","lng":"7.54136","location":"_","name":"Ronco (fraz. Fucina)","placeName":"_","id":"11922","type":"BUS"},{"lat":"45.49226","lines":"5140","lng":"7.53949","location":"_","name":"Ronco (bv. Forzo)","placeName":"_","id":"11925","type":"BUS"},{"lat":"45.49382","lines":"5140","lng":"7.54174","location":"_","name":"Ronco (Cimitero)","placeName":"_","id":"11926","type":"BUS"},{"lat":"45.49833","lines":"5140","lng":"7.54601","location":"_","name":"Ronco","placeName":"_","id":"11928","type":"BUS"},{"lat":"45.10912","lines":"51,50","lng":"7.69766","location":"C.VERCELLI / V.CENA","name":"CENA","placeName":"Torino","id":"1193","type":"BUS"},{"lat":"45.50007","lines":"5140","lng":"7.54759","location":"_","name":"Ronco (Ricovero)","placeName":"_","id":"11931","type":"BUS"},{"lat":"45.50378","lines":"5140","lng":"7.54927","location":"_","name":"Ronco (Caserma)","placeName":"_","id":"11934","type":"BUS"},{"lat":"45.50897","lines":"5140","lng":"7.55166","location":"_","name":"Ronco (bv. Scandosio)","placeName":"_","id":"11937","type":"BUS"},{"lat":"45.10585","lines":"50,51,46","lng":"7.69635","location":"C. VERCELLI DOPO V. REISS ROMOLI","name":"REISS ROMOLI","placeName":"Torino","id":"1194","type":"BUS"},{"lat":"45.5201","lines":"5140","lng":"7.5496","location":"_","name":"Valprato (PT)","placeName":"_","id":"11940","type":"BUS"},{"lat":"45.52365","lines":"5140","lng":"7.54921","location":"_","name":"Valprato Soana","placeName":"_","id":"11943","type":"BUS"},{"lat":"45.52819","lines":"5140","lng":"7.55656","location":"_","name":"Valprato (Cugnone/Picat)","placeName":"_","id":"11946","type":"BUS"},{"lat":"45.53183","lines":"5140","lng":"7.55956","location":"_","name":"Valprato (Masunassa)","placeName":"_","id":"11947","type":"BUS"},{"lat":"45.53603","lines":"5140","lng":"7.56403","location":"_","name":"Valprato (fraz. Balma)","placeName":"_","id":"11949","type":"BUS"},{"lat":"45.10587","lines":"50,51,46","lng":"7.69668","location":"C. VERCELLI / V. OXILIA","name":"OXILIA","placeName":"Torino","id":"1195","type":"BUS"},{"lat":"45.53703","lines":"5140","lng":"7.57094","location":"_","name":"Valprato (Fontanetta)","placeName":"_","id":"11952","type":"BUS"},{"lat":"45.53989","lines":"5140","lng":"7.57696","location":"_","name":"Valprato (Pianetto)","placeName":"_","id":"11955","type":"BUS"},{"lat":"45.55424","lines":"5140","lng":"7.57528","location":"_","name":"Piamprato","placeName":"_","id":"11958","type":"BUS"},{"lat":"45.42074","lines":"5137","lng":"7.58202","location":"_","name":"Pont (loc. Sarro)","placeName":"_","id":"11968","type":"BUS"},{"lat":"45.07281","lines":"57,10 navetta,3970,3165","lng":"7.66759","location":"CORSO BOLZANO / VIA RUFFINI","name":"PORTA SUSA CAP.","placeName":"Torino","id":"1197","type":"BUS"},{"lat":"45.41932","lines":"5137","lng":"7.56308","location":"_","name":"Pont  (borg. Lantigliera-Boetti)","placeName":"_","id":"11974","type":"BUS"},{"lat":"45.4134","lines":"5137","lng":"7.55062","location":"_","name":"Sparone (borg. Torre)","placeName":"_","id":"11977","type":"BUS"},{"lat":"45.10281","lines":"51,46,50,Night Buster 4 rossa","lng":"7.69488","location":"C.VERCELLI / P.REBAUDENGO","name":"REBAUDENGO SUD","placeName":"Torino","id":"1198","type":"BUS"},{"lat":"45.41315","lines":"5137","lng":"7.54497","location":"_","name":"Sparone (Municipio)","placeName":"_","id":"11980","type":"BUS"},{"lat":"45.41485","lines":"5137","lng":"7.54589","location":"_","name":"Sparone (P.za del Ponte)","placeName":"_","id":"11983","type":"BUS"},{"lat":"45.1029","lines":"46,51,50","lng":"7.69527","location":"C.VERCELLI / P.REBAUDENGO","name":"REBAUDENGO SUD","placeName":"Torino","id":"1199","type":"BUS"},{"lat":"45.07486","lines":"36,1,Night Buster 1 arancio","lng":"7.62915","location":"CORSO FRANCIA DOPO VIA POZZO STRADA","name":"POZZO STRADA","placeName":"Torino","id":"12","type":"BUS"},{"lat":"45.06943","lines":"2,1085","lng":"7.63878","location":"C.TRAPANI / C.PESCHIERA","name":"PESCHIERA","placeName":"Torino","id":"120","type":"BUS"},{"lat":"45.1004","lines":"50,51","lng":"7.69397","location":"C.VERCELLI / V. MARTORELLI","name":"PORPORA","placeName":"Torino","id":"1200","type":"BUS"},{"lat":"45.10061","lines":"50,51","lng":"7.69379","location":"C.VERCELLI N. 165","name":"GOTTARDO","placeName":"Torino","id":"1201","type":"BUS"},{"lat":"45.09813","lines":"50,51","lng":"7.69283","location":"C.VERCELLI N. 144 BIS","name":"RONDISSONE","placeName":"Torino","id":"1202","type":"BUS"},{"lat":"45.09804","lines":"50,51","lng":"7.69258","location":"C.VERCELLI FRONTE N. 140","name":"RONDISSONE","placeName":"Torino","id":"1203","type":"BUS"},